stationId,stationName,stationLongitude,stationLatitude,parkingQRBikeCnt,parkingELECBikeCnt,total,goo,dong
ST-4,102. 망원역 1번출구 앞,126.9106293,37.5556488,23,9,32,마포구,서교동
ST-5,103. 망원역 2번출구 앞,126.9108353,37.55495071,25,1,26,마포구,망원1동
ST-6,104. 합정역 1번출구 앞,126.9149857,37.55062866,11,0,11,마포구,서교동
ST-7,105. 합정역 5번출구 앞,126.9148254,37.55000687,3,0,3,마포구,서교동
ST-8,106. 합정역 7번출구 앞,126.9128265,37.54864502,11,0,11,마포구,합정동
ST-9,107. 신한은행 서교동지점,126.9185028,37.55751038,5,1,6,마포구,서교동
ST-10,108. 서교동 사거리,126.9186173,37.55274582,8,2,10,마포구,서교동
ST-11,109. 제일빌딩 앞,126.9199829,37.54769135,13,0,13,마포구,서강동
ST-15,111. 상수역 2번출구 앞,126.9235306,37.54787064,3,0,3,마포구,서강동
ST-16,112. 극동방송국 앞,126.9232025,37.54920197,1,0,1,마포구,서강동
ST-18,113. 홍대입구역 2번출구 앞,126.9238205,37.5574379,36,3,39,마포구,서교동
ST-20,114. 홍대입구역 8번출구 앞,126.9244232,37.55706024,41,0,41,마포구,서교동
ST-12,115. 마스타 빌딩 앞,126.9271164,37.55893326,8,3,11,서대문구,신촌동
ST-17,117. 홍은사거리,126.94133,37.59115982,5,0,5,서대문구,홍은2동
ST-19,118. 광흥창역 2번출구 앞,126.9317627,37.54773331,4,0,4,마포구,서강동
ST-21,119. 서강나루 공원,126.9310532,37.54528427,9,3,12,마포구,신수동
ST-22,120. 신수동 사거리,126.9341126,37.54524231,5,0,5,마포구,신수동
ST-23,121. 마포소방서 앞,126.9331741,37.54976654,6,1,7,마포구,신수동
ST-24,122. 신성기사식당 앞,126.9383774,37.54745865,2,0,2,마포구,신수동
ST-25,123. 문화촌 공원,126.9473877,37.59432983,11,0,11,서대문구,홍제3동
ST-26,124. 서강대 정문 건너편,126.9369888,37.55113983,14,6,20,마포구,대흥동
ST-27,125. 서강대 남문 옆,126.9389496,37.54948425,10,8,18,마포구,대흥동
ST-28,126. 서강대 후문 옆,126.9438477,37.55041122,3,0,3,마포구,대흥동
ST-29,127. 현대벤처빌 앞,126.9369507,37.5535202,0,0,0,마포구,대흥동
ST-30,128. 신촌역(2호선) 1번출구 옆,126.9363403,37.55549622,1,0,1,서대문구,신촌동
ST-31,129. 신촌역(2호선) 6번출구 옆,126.9375687,37.55505371,14,5,19,마포구,대흥동
ST-32,130. 신촌역(2호선) 7번출구 앞,126.9361572,37.55485916,13,0,13,마포구,서교동
ST-33,131. 증산2교,126.9111023,37.5841713,17,1,18,은평구,응암3동
ST-35,133. 해담는다리,126.9089966,37.58203125,13,0,13,서대문구,북가좌2동
ST-36,134. 연세로 명물길,126.9380798,37.55789185,1,0,1,서대문구,신촌동
ST-37,135. 명물길 원형무대 앞,126.9398422,37.55922699,1,0,1,서대문구,신촌동
ST-39,137. 신촌기차역입구 교차로,126.9431839,37.55681229,1,0,1,서대문구,신촌동
ST-40,138. 신촌동 제1공영주차장 앞,126.9345245,37.5591774,2,0,2,서대문구,신촌동
ST-43,139. 연세대 정문 건너편,126.9344177,37.55986404,16,0,16,서대문구,신촌동
ST-41,140. 이화여대 후문,126.9407349,37.560009,15,2,17,서대문구,신촌동
ST-42,141. 연대 대운동장 옆,126.9326477,37.56238174,14,0,14,서대문구,신촌동
ST-200,142. 아현역 4번출구 앞,126.9556656,37.55720139,6,1,7,마포구,아현동
ST-201,143. 공덕역 2번출구,126.9502182,37.54457855,3,2,5,마포구,아현동
ST-202,144. 공덕역 8번출구,126.9513245,37.5435791,3,0,3,마포구,공덕동
ST-203,145. 공덕역 5번출구,126.9516373,37.54425049,15,1,16,마포구,공덕동
ST-204,146. 마포역 2번출구 뒤,126.9458237,37.53993607,9,2,11,마포구,용강동
ST-205,147. 마포역 4번출구 뒤,126.9459152,37.53927231,18,0,18,마포구,도화동
ST-206,148. 용강동 주민센터 앞,126.9430237,37.54234695,12,2,14,마포구,용강동
ST-207,150. 서강대역 2번출구 앞,126.9343414,37.55295563,7,9,16,마포구,대흥동
ST-210,153. 성산2교 사거리,126.9126129,37.56469727,4,4,8,마포구,성산1동
ST-211,154. 마포구청역 ,126.9054947,37.56090927,3,2,5,마포구,성산1동
ST-212,155. 가좌역1 번출구 앞,126.9150467,37.56829453,0,2,2,마포구,성산2동
ST-213,156. 서울서부지방법원 앞,126.9549179,37.54933167,7,5,12,마포구,공덕동
ST-214,157. 애오개역 4번출구 앞,126.9566879,37.5530014,4,0,4,마포구,공덕동
ST-216,159. 이대역 4번 출구,126.9463425,37.55695343,0,0,0,서대문구,신촌동
ST-217,160. 북아현동 가구거리,126.9593811,37.55754852,1,2,3,마포구,아현동
ST-218,161. 무악재역1번 출구,126.9506455,37.58224487,0,0,0,서대문구,홍제2동
ST-219,162. 봉원고가차도 밑,126.9462433,37.56526947,9,1,10,서대문구,신촌동
ST-220,163. 명지전문대학교 정문 앞,126.9249649,37.58369827,9,0,9,서대문구,홍은2동
ST-221,164. 북가좌1동 주민센터 ,126.9100494,37.57447815,16,0,16,서대문구,북가좌1동
ST-222,165. 중앙근린공원,126.9139404,37.57513809,2,1,3,서대문구,북가좌1동
ST-223,166. 가재울 초등학교,126.9192352,37.57381821,2,1,3,서대문구,남가좌동
ST-224,167. 연가초등학교 옆,126.9171295,37.57946014,3,0,3,서대문구,남가좌동
ST-226,169. 북가좌 삼거리,126.9077988,37.57300186,0,0,0,서대문구,북가좌1동
ST-227,170. DMC파크뷰자이아파트 302동 앞,126.9224472,37.57311249,5,1,6,서대문구,남가좌동
ST-228,171. 임광빌딩 앞,126.9672775,37.56472397,6,4,10,서대문구,충현동
ST-230,173. 서대문역 8번출구 앞,126.9661484,37.56477737,4,6,10,서대문구,충현동
ST-231,175. 홍연2교옆,126.9308853,37.57806778,2,1,3,서대문구,남가좌1동
ST-555,176. 명지대학교 도서관,126.9240265,37.58109665,7,0,7,서대문구,남가좌2동
ST-345,177. 북가좌 초등학교,126.9098053,37.57767487,3,3,6,서대문구,북가좌1동
ST-349,178. 증산3교 앞,126.9063492,37.57987595,6,0,6,서대문구,북가좌1동
ST-232,179. 가좌역 4번출구 앞,126.9147949,37.56912231,1,3,4,서대문구,남가좌1동
ST-233,180. 충정로역 7번출구 아래,126.9624634,37.55996704,0,0,0,서대문구,충현동
ST-339,181. 망원초록길 입구,126.9026718,37.55134201,1,0,1,마포구,망원1동
ST-340,182. 망원2빗물펌프장 앞,126.9030609,37.5513649,1,1,2,마포구,망원1동
ST-341,183. 하늘채코오롱아파트 건너편,126.9193955,37.56516647,1,0,1,마포구,연남동
ST-342,184. 7번가피자 서교망원점,126.907753,37.55894852,9,0,9,마포구,성산1동
ST-343,185. 마포 신수공원 앞,126.9342957,37.54254532,1,2,3,마포구,신수동
ST-344,186. 월드컵공원,126.8982086,37.56396484,13,9,22,마포구,성산2동
ST-346,188. 홍은동 정원여중 입구,126.9351273,37.58638763,2,0,2,서대문구,홍은2동
ST-347,191. 서우빌딩,126.9107361,37.57889175,4,2,6,서대문구,북가좌2동
ST-348,192. 연서어린이공원,126.9230652,37.57222748,15,1,16,서대문구,연희동
ST-350,194. 증산교 앞,126.9029694,37.57731628,7,0,7,서대문구,북가좌1동
ST-351,195. 모래내고가차도 ,126.9178085,37.56765747,13,0,13,서대문구,연희동
ST-352,196. 연희교차로 인근,126.9258957,37.56612015,2,3,5,서대문구,연희동
ST-354,198. 충정2교,126.9637756,37.5621376,6,0,6,서대문구,충현동
ST-443,199. 서울 월드컵 경기장,126.8964462,37.56684494,29,12,41,마포구,성산2동
ST-45,200. 국회의원회관,126.9139175,37.52841568,10,1,11,영등포구,여의동
ST-46,201. 진미파라곤 앞,126.9213333,37.53123856,11,0,11,영등포구,여의동
ST-47,202. 국민일보 앞,126.92453,37.52881622,31,0,31,영등포구,여의동
ST-51,203. 국회의사당역 3번출구 옆,126.9187012,37.5280571,13,1,14,영등포구,여의동
ST-50,204. 국회의사당역 5번출구 옆,126.9170227,37.52816391,1,2,3,영등포구,여의동
ST-52,205. 산업은행 앞,126.9205093,37.52626419,6,6,12,영등포구,여의동
ST-53,206. KBS 앞,126.9180222,37.52466583,19,12,31,영등포구,여의동
ST-73,207. 여의나루역 1번출구 앞,126.9319,37.52715683,36,5,41,영등포구,여의동
ST-55,209. 유진투자증권빌딩 앞,126.9278336,37.52461243,26,2,28,영등포구,여의동
ST-59,213. KT앞,126.9189529,37.52190781,16,0,16,영등포구,여의동
ST-60,214. 금융감독원 앞,126.9208374,37.5230217,28,0,28,영등포구,여의동
ST-64,215. 여의도고교 앞,126.934906,37.52483749,2,2,4,영등포구,여의동
ST-66,217. NH농협은행 앞,126.9303665,37.52207947,35,4,39,영등포구,여의동
ST-62,219. 롯데캐슬엠파이어 옆,126.9258347,37.52069473,15,0,15,영등포구,여의동
ST-63,220. 미성아파트 A동 앞,126.9260483,37.5193634,18,1,19,영등포구,여의동
ST-67,221. 여의도초교 앞,126.9377899,37.52267456,3,0,3,영등포구,여의동
ST-68,222. 시범아파트버스정류장 옆,126.9375992,37.51943588,27,0,27,영등포구,여의동
ST-69,223. 진주아파트상가 앞,126.9331665,37.51931381,3,0,3,영등포구,여의동
ST-70,224. 롯데캐슬 앞,126.9323654,37.5200882,15,6,21,영등포구,여의동
ST-71,225. 앙카라공원 앞,126.9292526,37.51736832,35,2,37,영등포구,여의동
ST-72,226. 샛강역 1번출구 앞,126.9284134,37.51776505,19,2,21,영등포구,여의동
ST-277,227. 양평2나들목 보행통로 입구,126.8883591,37.54466629,13,2,15,영등포구,양평2동
ST-278,228. 선유도역 3번출구 앞,126.8945084,37.53845978,6,1,7,영등포구,양평2동
ST-279,229. 양평1 보행육교 앞,126.8921814,37.53587341,18,9,27,영등포구,양평동
ST-413,230. 영등포구청역 1번출구,126.8962174,37.52463531,22,0,22,영등포구,당산1동
ST-280,231. 남부고용노동지청 남측,126.8918228,37.52450562,8,0,8,영등포구,양평동
ST-281,232. 양평우림 이비즈센타 앞,126.8878174,37.52565002,17,1,18,영등포구,양평동
ST-282,233. 양평1동 YP센터 앞,126.8916473,37.52848816,13,1,14,영등포구,양평1동
ST-283,234. 영등포구민체육센터 앞,126.9058456,37.50046158,1,0,1,영등포구,신길5동
ST-284,235. 신길동 우리은행 옆,126.9102325,37.50456619,1,2,3,영등포구,신길3동
ST-285,236. 문래동자이아파트 앞,126.8946152,37.51615524,12,2,14,영등포구,문래동
ST-286,237. 보라매 두산위브 건너편,126.9148026,37.49651337,4,0,4,동작구,신대방2동
ST-287,238. 제2구민체육센타 앞,126.9027557,37.52638626,7,2,9,영등포구,당산1동
ST-288,239. 유스호스텔 앞,126.9032822,37.5258522,16,9,25,영등포구,영등포동
ST-289,240. 문래역 4번출구 앞,126.8955765,37.51873779,19,0,19,영등포구,문래동
ST-290,241. 신길우성1차아파트 앞 공원,126.8985367,37.50501633,0,0,0,영등포구,신길3동
ST-291,242. 신길선원가와인아파트 앞,126.9102249,37.51093292,14,0,14,영등포구,신길3동
ST-292,243. 이앤씨드림타워 앞,126.8913803,37.52708435,27,3,30,영등포구,양평동
ST-293,244. 영등포삼환아파트 앞,126.9057083,37.53007889,14,4,18,영등포구,영등포동
ST-294,245. 삼성생명 당산사옥 앞,126.8966293,37.52826309,17,0,17,영등포구,당산2동
ST-295,247. 당산역 10번출구 앞,126.9022369,37.53342056,12,0,12,영등포구,당산2동
ST-296,248. 초원아파트 앞,126.9242096,37.53105545,11,0,11,영등포구,여의동
ST-297,249. 여의도중학교 옆,126.9361191,37.52434921,5,8,13,영등포구,여의동
ST-298,250. 대림아파트 사거리,126.9230804,37.50764084,14,1,15,영등포구,신길7동
ST-299,251. 서울지방병무청 버스정류장,126.9219513,37.50449371,3,2,5,영등포구,신길7동
ST-300,252. 보라매역4번출구,126.9199448,37.49982834,19,1,20,영등포구,신길6동
ST-302,254. 도림신협 앞,126.9034195,37.50380325,0,0,0,영등포구,신길5동
ST-303,255. 도림사거리,126.9011307,37.50657272,18,4,22,영등포구,신길3동
ST-304,256. 동아에코빌입구,126.8992996,37.50947571,1,0,1,영등포구,도림동
ST-306,258. 신길역3번출구,126.914299,37.51769257,24,3,27,영등포구,영등포동
ST-307,259. 대방역6번출구,126.9259338,37.51359177,15,1,16,영등포구,신길7동
ST-414,260. 여의도 마리나선착장 앞,126.9121628,37.53365707,20,2,22,영등포구,여의동
ST-416,262. 영문초등학교 사거리,126.889183,37.51992798,9,4,13,영등포구,문래동
ST-417,263. 근로자회관 사거리,126.8886261,37.51715088,13,0,13,영등포구,문래동
ST-418,264. 교보생명보험 앞,126.8916168,37.52193069,4,2,6,영등포구,당산1동
ST-419,265. 영등포유통상가 사거리,126.8965378,37.52113342,8,1,9,영등포구,당산1동
ST-420,266. 영등포청과시장 사거리,126.9011917,37.52029419,1,0,1,영등포구,영등포동
ST-421,267. 삼성화재 사옥 옆,126.8983002,37.53596115,1,0,1,영등포구,양평2동
ST-422,268. 그랜드컨벤션센터 앞,126.9000015,37.53471756,8,2,10,영등포구,당산2동
ST-424,270. 증권거래소후문교차로,126.9271011,37.52234268,20,3,23,영등포구,여의동
ST-425,271. 샛강생태공원방문자센터 앞,126.9216156,37.51896286,16,5,21,영등포구,여의동
ST-426,272. 당산육갑문,126.9036789,37.53533936,20,1,21,영등포구,당산2동
ST-1320,275. 신동아아파트,126.885582,37.52222061,2,0,2,영등포구,양평동
ST-1321,276. 영등포로터리2,126.9126358,37.51828384,8,1,9,영등포구,영등포동
ST-1323,278. 쌍용플레티넘오피스텔,126.8952332,37.50793076,11,0,11,영등포구,도림동
ST-1353,279. 영등포 푸르지오 아파트,126.9044647,37.51322937,18,0,18,영등포구,영등포본동
ST-1539,280. 양평동6차현대아파트 앞,126.8944397,37.53210068,7,0,7,영등포구,양평2동
ST-1540,281. 신동아아파트 앞,126.8939819,37.49824142,3,1,4,영등포구,대림3동
ST-1541,282. 신한은행 대림동지점,126.9048767,37.48752975,13,2,15,영등포구,대림2동
ST-1649,283. 아크로타워 스퀘어(영등포시장),126.9072189,37.52251816,2,0,2,영등포구,영등포동
ST-1650,284. 센트럴 푸르지오 시티 앞,126.9022293,37.51821136,17,2,19,영등포구,문래동
ST-1651,285. 대림3동사거리(하나은행),126.8972397,37.49985886,14,1,15,영등포구,대림3동
ST-1652,286. 우성아파트 교차로,126.8997498,37.49457169,9,3,12,영등포구,대림2동
ST-1653,287. 영등포전화국사거리 (서강어린이공원),126.9057388,37.52576828,5,2,7,양천구,목5동
ST-1677,288. 쌍용예가(구청별관),126.8933868,37.52809906,12,3,15,영등포구,양평1동
ST-1697,289. 대림3동사거리,126.8980026,37.49980927,5,3,8,영등포구,대림3동
ST-1698,290. 당산동 SK V1 빌딩,126.8978272,37.5315094,13,2,15,영등포구,당산2동
ST-1699,291. 문래동 하이테크 시티,126.89888,37.51385117,22,0,22,영등포구,문래동
ST-1700,292. 영일 어린이공원,126.904068,37.51012039,2,0,2,영등포구,도림동
ST-1701,293. 충북 미래관,126.9075775,37.52917099,19,0,19,영등포구,당산2동
ST-1967,295.영등포공원 분수대 앞,126.911705,37.51481247,13,1,14,영등포구,영등포본동
ST-1968,296.KT플라자 영등포점,126.9053803,37.52630234,9,0,9,영등포구,영등포동
ST-1969,297.국회3문,126.912674,37.52863693,2,0,2,영등포구,여의동
ST-1970,298.KBS 연구동 건너편,126.914299,37.52750778,7,12,19,영등포구,여의동
ST-1971,299.여의도 순복음교회,126.9224548,37.53179169,6,2,8,영등포구,여의동
ST-116,300. 정동사거리,126.9692307,37.56805038,0,0,0,중구,중림동
ST-117,301. 경복궁역 7번출구 앞,126.9714508,37.57579422,10,0,10,종로구,사직동
ST-118,302. 경복궁역 4번출구 뒤,126.9740601,37.57594681,5,0,5,종로구,사직동
ST-119,303. 광화문역 1번출구 앞,126.9746628,37.57176971,11,0,11,종로구,사직동
ST-121,305. 종로구청 옆,126.9783325,37.57255936,14,0,14,종로구,종로1·2·3·4가동
ST-123,307. 서울역사박물관 앞,126.9710999,37.56999969,0,0,0,종로구,사직동
ST-124,308. 광화문 S타워 앞,126.973938,37.56996918,31,4,35,종로구,사직동
ST-125,309. 광화문역 6번출구 옆 B,126.9761581,37.56996155,6,0,6,종로구,사직동
ST-126,310. 청계광장 옆,126.9774704,37.56887817,8,0,8,중구,명동
ST-130,314. 국립현대미술관,126.9808579,37.5797081,2,1,3,종로구,청운효자동
ST-132,316. 종각역 1번출구 앞,126.9817886,37.57039642,1,0,1,종로구,종로1·2·3·4가동
ST-134,318. 광교사거리 남측,126.9823151,37.56863403,2,0,2,중구,명동
ST-136,320. 을지로입구역 4번출구 앞,126.9835892,37.56622314,12,1,13,중구,명동
ST-137,321. KEB 하나금융그룹 명동사옥 옆,126.9841385,37.56546402,13,0,13,중구,명동
ST-138,322. 명동성당 앞,126.986969,37.56447601,10,0,10,중구,명동
ST-140,324. 신세계백화점 본점 앞,126.9806976,37.56143188,10,2,12,중구,회현동
ST-142,326. 안국역 5번출구 앞,126.9861603,37.57624054,10,1,11,종로구,종로1·2·3·4가동
ST-143,327. 낙원상가 옆,126.9874649,37.57335663,4,0,4,종로구,종로1·2·3·4가동
ST-144,328. 탑골공원 앞,126.9881897,37.57039642,0,0,0,종로구,종로1·2·3·4가동
ST-145,329. 청계2가 사거리 옆,126.9878845,37.56848526,0,0,0,종로구,종로1·2·3·4가동
ST-147,331. 을지로2가 사거리 북측,126.9872055,37.56638336,11,1,12,중구,명동
ST-148,332. 을지로2가 사거리 남측,126.987793,37.56599045,7,1,8,중구,명동
ST-150,334. 종로3가역 2번출구 뒤,126.9917908,37.5705986,3,8,11,종로구,종로1·2·3·4가동
ST-151,335. 종로3가역 15번출구 앞,126.9912567,37.57019806,3,2,5,종로구,종로1·2·3·4가동
ST-152,336. 충무로역 6번출구 앞,126.9931107,37.56144714,0,0,0,중구,필동
ST-153,337. 창경궁 입구,126.9964752,37.57897949,2,0,2,종로구,종로1·2·3·4가동
ST-154,338. 세운스퀘어 앞,126.9971237,37.57095718,7,5,12,종로구,종로1·2·3·4가동
ST-155,339. 종로4가 사거리,126.9981918,37.57106781,4,7,11,종로구,종로1·2·3·4가동
ST-156,340. 혜화동 로터리,127.000679,37.58562851,1,1,2,종로구,혜화동
ST-157,341. 혜화역 3번출구 뒤,127.0017853,37.58156967,3,1,4,종로구,이화동
ST-158,342. 대학로 마로니에공원,127.002533,37.57978439,1,9,10,종로구,이화동
ST-159,343. 예일빌딩(율곡로) 앞,127.0046997,37.57561111,1,0,1,종로구,종로5·6가동
ST-160,344. 성균관대 E하우스 앞,127.0067215,37.57403564,2,0,2,종로구,종로5·6가동
ST-161,345. 서울보증보험본사 앞,127.0007095,37.57330704,11,8,19,종로구,연지동
ST-162,346. 맥스타일 앞,127.0098801,37.56918335,7,0,7,중구,광희동
ST-163,347. 동대문역사문화공원역 9번출구 앞,127.007843,37.56533051,12,10,22,중구,광희동
ST-183,348. 독립문역 사거리,126.9607849,37.57202911,1,3,4,종로구,교남동
ST-165,349. 사직동주민센터,126.9685898,37.57633209,5,0,5,종로구,사직동
ST-167,351. 청운초교 앞 삼거리,126.9706192,37.58507919,1,0,1,종로구,청운효자동
ST-168,352. 중앙고입구 삼거리,126.9852371,37.58341599,8,0,8,종로구,가회동
ST-169,353. 재동초교 앞 삼거리,126.9849472,37.57938766,21,2,23,종로구,가회동
ST-170,354. 포르투갈 대사관 앞,126.9889603,37.57915497,2,2,4,종로구,가회동
ST-171,355. 서울사대부속초교 앞,127.0024567,37.57650757,2,11,13,종로구,이화동
ST-172,356. KT혜화지사 앞,127.0020599,37.57714462,12,1,13,종로구,종로5·6가동
ST-173,358. 성대입구 사거리,126.9985352,37.58250046,3,3,6,종로구,종로1·2·3·4가동
ST-174,359. 원남동사거리,126.9976807,37.57606125,15,2,17,종로구,종로1·2·3·4가동
ST-175,361. 동묘앞역 1번출구 뒤,127.0159073,37.57324219,2,2,4,종로구,숭인1동
ST-176,362. 청계8가 사거리,127.0227051,37.57222366,11,1,12,종로구,숭인2동
ST-177,363. 신설동역 11번출구 뒤,127.02285,37.57559204,10,2,12,종로구,숭인2동
ST-178,364. 창신역 1번출구 앞,127.0150833,37.57933426,1,0,1,종로구,숭인1동
ST-180,367. 독립문역 3-1번출구 ,126.9586945,37.57384872,4,2,6,종로구,무악동
ST-181,368. SK 서린빌딩 앞,126.9805374,37.5692482,22,1,23,종로구,종로1·2·3·4가동
ST-182,369. 광화문 시민열린마당,126.9785004,37.57549286,6,1,7,종로구,종로1·2·3·4가동
ST-185,370. 시청역(2호선) 9번출구 뒤,126.9748383,37.56322861,27,9,36,중구,소공동
ST-186,371. 동대입구역 6번출구 뒤,127.0055389,37.55887222,11,3,14,중구,장충동
ST-187,372. 약수역 3번출구 뒤,127.0112,37.55429459,2,1,3,중구,약수동
ST-189,374. 청구역 2번출구 앞,127.0140762,37.5604744,9,10,19,중구,동화동
ST-194,379. 서울역9번출구,126.9733582,37.55599976,1,0,1,중구,회현동
ST-195,380. CJ제일제당 앞,127.0027466,37.56386566,5,3,8,중구,쌍림동
ST-196,381. 장충체육관,127.0069885,37.55853271,2,3,5,중구,장충동
ST-197,382. 약수역 10번출구 앞,127.0100479,37.55519867,5,0,5,중구,다산동
ST-198,383. 신당역 12번 출구 뒤,127.0164032,37.5658493,19,4,23,중구,신당동
ST-199,384. 종로학원본원 ,126.9685059,37.55978012,0,2,2,중구,중림동
ST-336,385. 종각역 5번출구,126.9826584,37.56983566,7,2,9,종로구,종로1·2·3·4가동
ST-338,387. 훈련원공원주차장 앞,127.0034638,37.56699371,14,4,18,중구,을지로동
ST-444,388. 동성중학교 앞,127.0016098,37.58573532,2,0,2,종로구,혜화동
ST-943,389. 을지로4가역 1번출구,126.9966049,37.5667305,3,1,4,중구,을지로동
ST-944,390. 충무로역 1번출구,126.9953537,37.56138992,0,4,4,중구,필동
ST-977,391. 시립미술관,126.9734039,37.56505203,6,0,6,중구,소공동
ST-1372,393. 동대문역 8번 출구,127.0093765,37.57014084,5,1,6,종로구,종로5·6가동
ST-1373,394. 경희궁 자이 3단지,126.9659195,37.56748962,9,5,14,종로구,교남동
ST-1374,395. 경희궁 자이 2단지,126.9645615,37.56885529,2,0,2,종로구,교남동
ST-1432,397. 종묘공영주차장 건너편,126.9966354,37.57048035,4,2,6,종로구,종로1·2·3·4가동
ST-1435,398. 을지로3가역 3번출구,126.9924393,37.56655884,9,4,13,중구,을지로동
ST-1436,399. 서울역 센트럴 자이아파트,126.9654083,37.55410767,11,3,14,용산구,청파동
ST-110,400. 상암한화오벨리스크 1차 앞,126.8830032,37.58752441,1,1,2,마포구,상암동
ST-76,401. 상암월드컵파크 10단지 앞,126.8816147,37.58618927,3,1,4,마포구,상암동
ST-77,402. 상암월드컵파크 9단지 앞,126.8798218,37.58285522,0,2,2,마포구,상암동
ST-78,403. 부엉이공원 앞,126.8847275,37.58559036,0,13,13,마포구,상암동
ST-80,405. DMC빌 앞,126.885788,37.58265686,4,0,4,마포구,상암동
ST-81,406. 상암월드컵파크 7단지 앞,126.8808746,37.58111191,4,1,5,마포구,상암동
ST-83,407. 마포구 육아종합지원센터,126.8836746,37.58063126,0,0,0,마포구,상암동
ST-84,408. LG CNS앞,126.8866501,37.58081055,7,2,9,마포구,상암동
ST-86,409. 누리꿈스퀘어 옆,126.8891602,37.57939911,16,1,17,마포구,상암동
ST-88,410. 상암중학교 옆,126.8874741,37.57739258,4,0,4,마포구,상암동
ST-90,411. DMC홍보관,126.8914719,37.5779953,27,6,33,마포구,상암동
ST-91,412. DMC산학협력연구센터 앞,126.8907394,37.57580185,10,0,10,마포구,상암동
ST-92,413. 상암월드컵파크 3단지 후문,126.8896866,37.57147598,12,4,16,마포구,상암동
ST-94,414. 상암동주민센터 옆,126.8944702,37.57822037,12,1,13,마포구,상암동
ST-95,415. DMC역 9번출구 앞,126.8973618,37.57746887,2,1,3,마포구,상암동
ST-96,416. 상암월드컵파크 1단지 교차로,126.8944473,37.57566452,7,0,7,마포구,상암동
ST-93,417. DMC역 2번출구 옆,126.8999176,37.57506943,21,6,27,마포구,상암동
ST-89,418. 월드컵경기장역 3번출구 옆,126.8989792,37.57072067,5,2,7,마포구,성산2동
ST-87,419. 홈플러스 앞,126.8994293,37.56842041,23,2,25,마포구,성산2동
ST-85,420. 서울시 공공자전거 상암센터,126.8961792,37.56624603,16,6,22,마포구,성산2동
ST-82,421. 마포구청 앞,126.9018631,37.56574631,3,0,3,마포구,성산2동
ST-968,422. 문화비축기지,126.8944016,37.56897736,4,0,4,마포구,성산2동
ST-990,424. 롯데하이마트 (상암월드컵점) ,126.8980484,37.57361984,5,1,6,마포구,상암동
ST-991,425. DMC첨단산업센터,126.8855972,37.58450317,4,0,4,마포구,상암동
ST-992,426. 서울신용보증재단,126.9541779,37.54906082,16,3,19,마포구,아현동
ST-1397,427. 성산시영아파트,126.9038162,37.56958389,9,1,10,마포구,성산2동
ST-1437,428. 명보사거리,126.9914322,37.56439972,13,1,14,중구,을지로동
ST-1438,429. 송도병원,127.0073471,37.54988861,0,6,6,중구,다산동
ST-1439,430. 장충동먹자골목 앞,127.0063171,37.56207275,4,2,6,중구,장충동
ST-1440,431. 청계천 영도교,127.0197449,37.5710144,3,0,3,중구,황학동
ST-1494,432. 마포중앙도서관,126.9082031,37.56333923,13,2,15,마포구,성산1동
ST-1668,433. 을지로입구역 2번출구,126.9822922,37.56634521,12,5,17,중구,명동
ST-1669,434. 신당 래미안 버스정류장,127.0239334,37.56148911,11,3,14,중구,신당5동
ST-1670,435. SK 남산빌딩,126.9756165,37.55686188,7,2,9,중구,회현동
ST-1675,436. 이대역 5번출구,126.9461899,37.55659103,4,1,5,마포구,아현동
ST-1691,437. 대흥역 1번출구,126.9409256,37.54846954,5,1,6,마포구,대흥동
ST-1692,438. 성산2-1 공영주차장,126.9067688,37.56472015,5,4,9,마포구,성산2동
ST-1754,440. 하늘공원 입구,126.8813477,37.57012177,0,3,3,마포구,상암동
ST-1761,441.염천교사거리,126.9714966,37.55989075,10,4,14,중구,소공동
ST-1768,442.서울역 서부,126.9691925,37.55641556,3,1,4,중구,중림동
ST-1769,443.호암아트홀,126.9707184,37.5621109,3,5,8,중구,중림동
ST-1771,445.대한상공회의소,126.9741058,37.56015396,0,0,0,중구,소공동
ST-938,446. 상명대입구,126.9578323,37.60012817,1,1,2,서대문구,홍은1동
ST-939,447. 신영동삼거리,126.9619446,37.60399246,0,0,0,종로구,부암동
ST-941,449. 일성아파트,126.9728622,37.60871887,2,0,2,종로구,평창동
ST-978,450. 효자동 삼거리,126.9725494,37.58360291,0,0,0,종로구,청운효자동
ST-979,451. 청와대앞길,126.9796677,37.58351517,3,0,3,종로구,삼청동
ST-1605,452. 동대문 종합시장 버스정류장,127.0044098,37.57123947,7,2,9,종로구,종로5·6가동
ST-1606,453. 종로오가 지하쇼핑센터 14번출구,127.0006714,37.57114029,7,3,10,종로구,종로5·6가동
ST-1607,454. 종로2가 버스정류장 (종각방향),126.9863815,37.57035828,5,1,6,종로구,종로1·2·3·4가동
ST-1608,455. 종로6가역 버스정류장(동대문 방향),127.0060577,37.570961,7,2,9,종로구,종로5·6가동
ST-1609,456. 숭인2동 주민센터 입구,127.0198288,37.57447052,3,0,3,종로구,숭인2동
ST-1610,457. 종로꽃시장 입구 옆,127.0072098,37.57131958,6,3,9,종로구,종로5·6가동
ST-1611,458. 광화문역 5번출구,126.9775696,37.56989288,7,0,7,종로구,종로1·2·3·4가동
ST-1619,461. 서울지방경찰청,126.9723663,37.57436371,0,0,0,종로구,사직동
ST-1752,462. 신영동삼거리(북악터널방향),126.9620667,37.60351181,0,0,0,종로구,부암동
ST-1756,464. 삼청동 골목,126.9816971,37.58419037,1,0,1,종로구,삼청동
ST-1759,465. 삼청공원 앞,126.9835968,37.58760452,2,0,2,종로구,가회동
ST-1772,466.롯데호텔,126.9798126,37.56584167,7,6,13,중구,명동
ST-1773,467.한국은행,126.9808655,37.5622139,10,3,13,중구,소공동
ST-1774,468.웨스틴 조선호텔,126.9794846,37.56415939,6,3,9,중구,소공동
ST-1775,469.회현역 1번출구,126.9801407,37.5592308,0,1,1,중구,회현동
ST-1776,470.회현역 7번출구,126.9800034,37.55974579,2,0,2,중구,회현동
ST-1777,471.회현사거리 남측,126.9826508,37.56035995,9,2,11,중구,명동
ST-1778,472.삼일교(시그니쳐 타워),126.9884033,37.56787109,6,0,6,중구,명동
ST-1779,473.을지로4가역 9번출구,126.9979858,37.56605148,16,7,23,중구,을지로동
ST-1780,474.동대문역사문화공원역 1번출구 뒤편,127.0084915,37.56629944,15,10,25,중구,광희동
ST-1781,475.DDP 패션몰,127.0118103,37.56764984,11,3,14,중구,신당동
ST-1782,476.광희문,127.0099564,37.56443024,18,2,20,중구,광희동
ST-1783,477.앰배서더 호텔 주변,127.0026856,37.55928802,31,4,35,중구,장충동
ST-1785,479.동대입구역 3번 출구,127.0060272,37.55937576,13,7,20,중구,장충동
ST-1786,480.약수역 6번 출구,127.010704,37.55432129,2,1,3,중구,약수동
ST-1787,481.신당역 10번 출구,127.0157929,37.56703186,16,4,20,중구,신당동
ST-1789,483.남산타운아파트 버스정류장,127.0064392,37.54758453,11,4,15,중구,약수동
ST-1790,484.도동삼거리,126.9774246,37.55614853,8,3,11,중구,회현동
ST-1791,485.서울역5번출구,126.9731979,37.55677032,8,1,9,중구,회현동
ST-2019,486. 평창동주민센터 앞,126.9683228,37.60627365,1,0,1,종로구,평창동
ST-2146,487.신석초교앞 교차로 교통섬,126.9383087,37.54364014,16,4,20,마포구,신수동
ST-2147,488.푸르메병원,126.8802109,37.58456802,14,10,24,마포구,상암동
ST-2148,489.구룡근린공원,126.8827667,37.58320236,1,0,1,마포구,상암동
ST-2149,490.가온문화공원,126.8876648,37.58207703,15,3,18,마포구,상암동
ST-2150,491.월드컵파크 4단지,126.8880692,37.57597733,16,1,17,마포구,상암동
ST-2151,492.성산시영아파트 후문,126.9018478,37.57313538,11,0,11,마포구,성산2동
ST-2152,493.홍대입구역 6번출구,126.9288559,37.55657578,1,0,1,마포구,서교동
ST-2153,494.신수동주민센터,126.9350281,37.54724503,3,0,3,마포구,신수동
ST-2154,495.염리초등학교 앞,126.9469986,37.54243088,9,4,13,마포구,용강동
ST-2156,497.합정동주민센터 앞,126.9123001,37.551754,11,1,12,마포구,서교동
ST-2157,498.연남동주민센터 앞,126.9221268,37.56465149,10,0,10,마포구,연남동
ST-97,500. 어린이대공원역 3번출구 앞,127.0742722,37.54706955,9,0,9,광진구,화양동
ST-98,501. 광진구의회 앞,127.0703507,37.53730774,1,2,3,광진구,자양3동
ST-99,502. 뚝섬유원지역 1번출구 앞,127.0671921,37.53186035,5,0,5,광진구,자양3동
ST-102,505. 자양사거리 광진아크로텔 앞,127.0822449,37.53701019,2,0,2,광진구,자양1동
ST-103,506. 금호 어울림 아파트 앞,127.0577927,37.54906082,14,1,15,성동구,송정동
ST-105,508. 성수아카데미타워 앞,127.0575104,37.54516602,21,0,21,성동구,성수2가3동
ST-106,509. 이마트 버스정류소 옆,127.0525894,37.53965378,21,0,21,성동구,성수2가1동
ST-107,510. 서울숲 남문 버스정류소 옆,127.0438004,37.54122162,3,3,6,성동구,성수1가1동
ST-108,511. 서울숲역 5번 출구 옆,127.0446091,37.54458237,8,3,11,성동구,성수1가1동
ST-109,512. 뚝섬역 1번 출구 옆,127.0450058,37.5485611,14,0,14,성동구,성수1가1동
ST-111,513. 뚝섬역 5번 출구 정류소 옆,127.0498047,37.54630661,2,4,6,성동구,성수2가3동
ST-112,514. 성수사거리 버스정류장 앞,127.0633087,37.54257965,17,0,17,성동구,성수2가3동
ST-113,515. 광양중학교 앞,127.0868301,37.53023529,6,0,6,광진구,자양2동
ST-114,516. 광진메디칼 앞,127.0693665,37.54840469,2,0,2,광진구,군자동
ST-234,518. 청계천 박물관 앞,127.0353546,37.57152557,14,4,18,성동구,마장동
ST-235,519. 양지사거리,127.0299149,37.56699371,7,1,8,성동구,왕십리도선동
ST-236,520. 상왕십리역 4번 출구 앞,127.0303192,37.56385803,1,0,1,성동구,왕십리2동
ST-237,521. 왕십리역 11번 출구 앞,127.0349197,37.56144714,5,0,5,성동구,행당1동
ST-238,522. 금호역 1번출구 앞,127.0164261,37.5486412,1,0,1,성동구,금호2·3가동
ST-239,523. 옥수동성당 옆,127.014061,37.54366302,6,1,7,성동구,옥수동
ST-240,524. 래미안금호하이리버 아파트 102동 옆,127.0250549,37.55220032,1,0,1,성동구,금호2·3가동
ST-241,525. 한양대병원사거리,127.0403519,37.55805206,14,0,14,성동구,사근동
ST-242,526. 용답토속공원 앞,127.0567246,37.56351089,7,3,10,동대문구,답십리2동
ST-243,529. 장한평역 8번 출구 앞,127.0636597,37.56137085,12,2,14,성동구,장안1동
ST-244,530. 청계벽산아파트 앞,127.0304031,37.56874847,2,6,8,성동구,왕십리도선동
ST-245,533. 금남시장 교차로,127.0210877,37.54814911,7,1,8,성동구,금호4가동
ST-246,534. 금호사거리,127.0257263,37.54863358,14,4,18,성동구,금호2·3가동
ST-247,535. 응봉삼거리,127.0335922,37.5539856,11,0,11,성동구,응봉동
ST-248,536. 행당역 2번출구 앞,127.029213,37.55735016,1,0,1,성동구,행당2동
ST-249,537. 한양대후문역 부근,127.0413971,37.56035614,4,0,4,성동구,마장동
ST-250,538. 답십리역 8번출구 앞,127.0511551,37.56764984,16,3,19,성동구,용답동
ST-252,539. 군자교교차로,127.0742035,37.55979538,1,0,1,광진구,중곡1동
ST-253,540. 군자역 7번출구 베스트샵 앞,127.0786438,37.55603027,7,0,7,광진구,군자동
ST-254,542. 강변역 4번출구 뒤,127.0944824,37.53546524,9,1,10,광진구,구의3동
ST-255,543. 구의공원(테크노마트 앞),127.0946732,37.53596878,15,4,19,광진구,구의3동
ST-256,544. 광남중학교,127.1029053,37.54072952,0,1,1,광진구,광장동
ST-257,546. 잠실대교북단 교차로,127.0850906,37.53247833,1,0,1,광진구,자양1동
ST-258,548. 자양나들목,127.0748596,37.5297699,6,0,6,광진구,자양2동
ST-259,549. 아차산역 3번출구,127.0897064,37.55122375,5,0,5,광진구,구의2동
ST-251,550. 서울시설공단 앞,127.0356598,37.57164001,23,1,24,성동구,마장동
ST-377,551. 구의삼성쉐르빌 앞,127.0944977,37.54006195,14,0,14,광진구,구의3동
ST-378,552. 대림아크로리버 앞,127.0929718,37.53657913,16,2,18,광진구,구의3동
ST-379,553. 중곡 성원아파트 앞,127.0798035,37.57125473,4,0,4,광진구,중곡3동
ST-381,555. 구의3동주민센터,127.0921707,37.53784943,1,0,1,광진구,구의3동
ST-357,556. 달맞이공원,127.020401,37.54205322,0,0,0,성동구,금호4가동
ST-358,557. 도선동 주민센터 앞,127.0256958,37.56764221,16,2,18,성동구,왕십리도선동
ST-359,558. 성동광진 교육지원청 앞,127.0365219,37.56460571,5,0,5,성동구,행당1동
ST-360,559. 왕십리역 4번 출구 건너편,127.0367966,37.56109619,6,1,7,성동구,행당1동
ST-361,560. 비전교회 앞,127.0689316,37.55120468,2,0,2,성동구,송정동
ST-362,561. 서울숲역 2번출구 앞,127.0446701,37.54281616,12,2,14,성동구,성수1가1동
ST-363,562. 군자지하보도 앞,127.07341,37.55924606,4,0,4,성동구,송정동
ST-364,563. 성동세무서 건너편,127.0627518,37.5479126,16,2,18,성동구,성수2가3동
ST-365,564. 금호역 3번출구,127.0155716,37.54792786,1,0,1,성동구,금호2·3가동
ST-366,565. 옥수역 3번출구,127.0177612,37.54136658,5,2,7,성동구,옥수동
ST-368,567. 성수역 2번출구 앞,127.0570831,37.54459,14,0,14,성동구,성수2가3동
ST-369,568. 청계8가사거리 부근,127.0235596,37.57110214,14,1,15,성동구,왕십리도선동
ST-370,569. 응봉현대아파트 정류소,127.0302429,37.54958344,0,0,0,성동구,응봉동
ST-382,571. 세종대학교 대양AI센터,127.0758591,37.55039597,15,8,23,광진구,능동
ST-384,573. 구의문주차장 앞,127.0847321,37.54523087,6,3,9,광진구,구의1동
ST-385,574. 아차산역4번출구,127.0889816,37.55184937,13,2,15,광진구,능동
ST-386,575. 대원중고교 입구(대하빌딩),127.086937,37.56429291,1,0,1,광진구,중곡4동
ST-387,576. 광나루역 3번 출구,127.1042633,37.54483032,0,0,0,광진구,광장동
ST-388,577. 광진청소년수련관,127.1061325,37.54654694,0,0,0,광진구,광장동
ST-371,578. 성동세무서 부근,127.0624619,37.54829025,8,3,11,성동구,송정동
ST-372,579. 마장역 4번출구,127.0418472,37.56520462,7,3,10,성동구,마장동
ST-375,582. 경일중학교 앞,127.0490799,37.54317856,1,0,1,성동구,성수1가1동
ST-376,583. 청계천 생태교실 앞,127.0468903,37.56797028,18,2,20,성동구,마장동
ST-445,584. 광진광장 교통섬,127.0726318,37.54782867,13,1,14,광진구,송정동
ST-446,585. 성수2가1동 공영주차장 인근,127.0554886,37.53680801,4,0,4,성동구,성수2가1동
ST-447,586. 마장동 주민센터,127.0453949,37.56594086,8,1,9,성동구,마장동
ST-482,587. 유니베라 앞,127.0526428,37.54541779,20,3,23,성동구,성수2가3동
ST-483,588. 뚝섬 유원지역,127.0674973,37.53268814,0,0,0,광진구,자양3동
ST-506,589. 성수역3번출구,127.0566559,37.54415894,4,0,4,성동구,성수2가3동
ST-972,590. 건국대학교 (입학정보관),127.0733643,37.53989029,0,0,0,광진구,화양동
ST-973,591. 건국대학교 (행정관),127.0753708,37.54277802,0,1,1,광진구,화양동
ST-974,592. 건국대학교 학생회관,127.0776367,37.54191208,17,4,21,광진구,화양동
ST-980,593.자양중앙나들목,127.0778732,37.52858734,3,0,3,광진구,자양2동
ST-967,594. 중랑물재생센터(서울새활용플라자),127.0569077,37.55836487,12,0,12,성동구,용답동
ST-260,600. 휘경2동 주민센터,127.0686798,37.58991241,5,1,6,동대문구,휘경2동
ST-261,601. 용신동주민센터,127.0373612,37.57594681,12,0,12,동대문구,용신동
ST-262,602. 장안동 사거리,127.0713882,37.57217407,36,3,39,동대문구,장안2동
ST-265,605. 신설동역8번출구,127.0264969,37.57419968,5,2,7,동대문구,용신동
ST-266,606. 휘경공고앞,127.0702896,37.58462524,6,1,7,동대문구,휘경2동
ST-267,607. 신이문역 2번출구,127.0678635,37.60271072,16,1,17,동대문구,이문1동
ST-268,608. 전농삼성아파트,127.0553436,37.58131027,9,2,11,동대문구,전농2동
ST-269,609. 제기2교,127.037384,37.58774567,4,2,6,동대문구,제기동
ST-270,610. 동대문중 교차로,127.0521622,37.57308578,5,0,5,동대문구,답십리1동
ST-271,612. 시립동부병원 앞 사거리,127.0308151,37.57366562,8,7,15,동대문구,용신동
ST-272,613. 신설동역 10번출구 앞,127.023468,37.57527161,3,1,4,동대문구,용신동
ST-273,614. 용두동 사거리,127.0310135,37.57768631,19,4,23,동대문구,용신동
ST-274,615. 용두동 래미안허브리츠아파트 앞,127.0351105,37.57638168,7,1,8,동대문구,용신동
ST-275,616. 서울시립대 앞,127.0543671,37.58256149,0,0,0,동대문구,전농2동
ST-276,617. 청솔우성아파트 앞,127.0576935,37.57420349,17,3,20,동대문구,답십리2동
ST-389,621. 동대문중학교 옆,127.0535355,37.57489014,12,0,12,동대문구,전농1동
ST-390,622. 전농사거리 교통섬,127.0578308,37.57779312,6,3,9,동대문구,전농1동
ST-391,623. 서울시립대 정문 앞,127.0538559,37.58369827,1,1,2,동대문구,전농2동
ST-392,624. 전농동 동아아파트 앞,127.0458908,37.57418823,0,0,0,동대문구,전농1동
ST-394,626. 군자교 서측 녹지대,127.0709686,37.56115341,5,0,5,동대문구,장안1동
ST-395,627. 장안동삼거리 교통섬,127.071907,37.57863235,0,0,0,동대문구,장안2동
ST-396,628. 휘봉고등학교 앞,127.067543,37.58681488,13,2,15,동대문구,휘경2동
ST-397,630. 동대문구 보건소,127.0403061,37.57485199,6,0,6,동대문구,용신동
ST-398,631. 답십리역 1번출구,127.0512772,37.5681839,19,2,21,동대문구,답십리1동
ST-400,633. 청량리 기업은행 앞,127.0448227,37.58040619,11,5,16,동대문구,청량리동
ST-401,634. 외국어대 정문 앞,127.0598297,37.59601974,24,1,25,동대문구,이문2동
ST-402,635. 시조사 앞,127.0527725,37.58751678,1,0,1,동대문구,청량리동
ST-403,636. 세종대왕기념관 교차로,127.0425873,37.59090042,6,2,8,동대문구,청량리동
ST-404,637. KAIST 경영대학 앞,127.0457916,37.59161377,3,0,3,동대문구,청량리동
ST-405,638. 서울시립대 정보기술관,127.0609741,37.58300781,9,2,11,동대문구,전농2동
ST-406,639. 서울시립대 후문,127.0609512,37.58519745,12,0,12,동대문구,전농2동
ST-407,640. 동대문경찰서 교차로,127.0446014,37.58255005,8,2,10,동대문구,청량리동
ST-408,641. 용두역 4번출구,127.0385361,37.57375336,10,0,10,동대문구,용신동
ST-409,642. 신답역 사거리,127.0484314,37.57035446,9,1,10,동대문구,답십리1동
ST-410,643. 동대문구민체육센터 (육교아래),127.074295,37.56697083,1,1,2,동대문구,장안1동
ST-1298,646. 장한평역 1번출구,127.0645065,37.56196594,10,1,11,동대문구,장안1동
ST-1299,647. 신이문역 1번출구,127.0672684,37.60279846,12,1,13,동대문구,이문1동
ST-1300,648. 장안동위더스빌옆,127.0624237,37.56669998,2,0,2,동대문구,장안1동
ST-1302,650. 중랑교사거리,127.0677414,37.59153366,0,2,2,동대문구,휘경2동
ST-1447,652. 답십리 래미안엘파인아파트 입구,127.0659409,37.57653046,2,0,2,동대문구,답십리2동
ST-1449,654. 전농동 텃골공원,127.0521088,37.57762146,1,0,1,동대문구,전농1동
ST-1628,656. 영휘원 교차로,127.0431366,37.58723831,17,1,18,동대문구,청량리동
ST-1629,657. 동대문롯데캐슬아파트 앞,127.0487747,37.57551956,8,1,9,동대문구,전농1동
ST-1631,659. 제기역1번출구,127.0333862,37.57835007,6,4,10,동대문구,용신동
ST-1632,660. 동의보감타워,127.0376282,37.57799911,17,0,17,동대문구,용신동
ST-1625,661. 경희대학교 청운관,127.0519714,37.59460068,1,1,2,동대문구,회기동
ST-1671,663. 외대앞역 4번출구,127.0630264,37.59489059,2,0,2,동대문구,휘경1동
ST-1758,664. 서울시립대 건설공학관,127.0579376,37.58412933,14,2,16,동대문구,전농2동
ST-2265,665.이문동 쌍용아파트 정문,127.0686417,37.59960556,10,1,11,동대문구,이문1동
ST-2266,666.이문대성유니드아파트 앞,127.0708313,37.60362244,12,0,12,동대문구,이문1동
ST-2267,667.청량차도 육교 밑,127.0469971,37.58659363,8,1,9,동대문구,청량리동
ST-2268,668.서울축산농협(장안지점),127.068779,37.56799698,9,0,9,동대문구,장안1동
ST-2269,669.청계한신휴플러스앞 삼거리,127.0446091,37.57214737,7,3,10,동대문구,답십리1동
ST-2270,670.삼육서울병원 버스정류장,127.061409,37.58968735,16,0,16,동대문구,휘경2동
ST-2271,671.대광빌딩,127.0233765,37.57734299,9,0,9,동대문구,용신동
ST-2272,672.대광고등학교,127.024025,37.57875061,16,1,17,동대문구,용신동
ST-2273,673.안암골벽산아파트(후문),127.0310364,37.58407974,15,0,15,동대문구,제기동
ST-2274,674.고대앞사거리 교통섬,127.0331421,37.58655167,18,1,19,동대문구,제기동
ST-2276,676.FITI시험연구원 앞,127.0354767,37.58143234,14,3,17,동대문구,제기동
ST-2278,678.장안힐스테이트(아) 앞,127.0743103,37.57655716,6,4,10,동대문구,장안2동
ST-2279,679.전농SK아파트 앞,127.0616837,37.57787704,6,1,7,동대문구,전농2동
ST-2280,680.꿈마루어린이도서관 앞,127.0574112,37.59238434,5,0,5,동대문구,회기동
ST-2281,681.서울특별시 동부교육지원청(육교),127.0563736,37.5798378,12,2,14,동대문구,전농2동
ST-308,700. KB국민은행 염창역 지점 앞,126.8727722,37.5468483,16,2,18,양천구,목2동
ST-309,701. 목동사거리 부근,126.8639298,37.53280258,3,0,3,양천구,목4동
ST-310,702. 목4동주민센터 옆,126.8687286,37.53254318,3,0,3,양천구,목4동
ST-311,703. 오목교역 7번출구 앞,126.8752441,37.52362823,20,0,20,양천구,목1동
ST-312,704. 남부법원검찰청 교차로,126.8649063,37.52325439,2,0,2,양천구,신정4동
ST-313,706. 신정네거리역,126.8517532,37.5218811,8,2,10,양천구,신월2동
ST-315,708. 서울출입국관리사무소 앞,126.8699646,37.51897049,6,1,7,양천구,신정2동
ST-316,709. 신정3동 현장민원실 앞,126.8415604,37.51158524,31,1,32,양천구,신월6동
ST-317,710. 금옥여고보도육교,126.8441696,37.50971222,8,2,10,양천구,신정3동
ST-318,711. 신일해피트리아파트 앞,126.8484879,37.51705933,26,4,30,양천구,신정3동
ST-319,712. 강월초교입구 사거리,126.8383179,37.51699829,2,0,2,양천구,신월7동
ST-320,713. 양서중학교 옆,126.8299561,37.53304672,20,0,20,양천구,신월1동
ST-321,714. 한국SGI 양천문화회관 앞,126.8308029,37.532547,16,0,16,양천구,신월1동
ST-428,716.신정6동 주민센터 인근,126.8643189,37.51731873,22,2,24,양천구,신정6동
ST-431,719. 홍익병원앞 교차로,126.8642578,37.5303688,8,1,9,양천구,목4동
ST-432,720. 서울강월초등학교 앞,126.8348999,37.5161972,17,3,20,양천구,신월7동
ST-993,722. 경서농협 버스정류장(우리은행신정동지점방향),126.8573837,37.52151108,0,1,1,양천구,신정1동
ST-994,723. SBS방송국,126.8727493,37.52916336,23,0,23,양천구,목1동
ST-995,724. 계남공원 입구 주출입구 좌측,126.857399,37.51068115,13,0,13,양천구,신정7동
ST-996,725. 양강중학교앞 교차로,126.8505478,37.52433395,8,1,9,양천구,신정4동
ST-997,726. 목동3단지 시내버스정류장,126.8695984,37.5343895,16,0,16,양천구,목5동
ST-1000,729. 서부식자재마트 건너편,126.8667984,37.51037979,2,0,2,양천구,신정7동
ST-1002,731. 서울시 도로환경관리센터,126.8765411,37.5298996,18,1,19,양천구,목1동
ST-1003,732. 신월중학교,126.8283005,37.53955078,0,1,1,양천구,신월5동
ST-1004,733. 신정이펜하우스314동,126.8310013,37.51409912,17,2,19,양천구,신정3동
ST-1005,734. 신트리공원 입구,126.8560562,37.51395035,0,0,0,양천구,신정7동
ST-1006,735. 영도초등학교,126.8715134,37.53637695,5,0,5,양천구,목5동
ST-1007,736. 오솔길공원,126.8367004,37.52219009,2,0,2,양천구,신월7동
ST-1008,737. 장수공원,126.8494797,37.52256012,8,0,8,양천구,신월2동
ST-1010,739. 신월사거리,126.8277969,37.53620148,1,0,1,양천구,신월3동
ST-1011,740. 으뜸공원,126.8317108,37.53636932,5,1,6,양천구,신월5동
ST-1012,741. 화곡로 입구 교차로,126.8254013,37.53952026,1,0,1,양천구,신월3동
ST-1013,742. 등촌역 5번 출구 뒤,126.8645783,37.55073166,2,1,3,양천구,목3동
ST-1014,743. 현대6차아파트 101동 옆,126.8426819,37.50889969,4,2,6,양천구,신정3동
ST-1015,744. 신목동역 2번 출구,126.8825455,37.54384232,0,0,0,양천구,목5동
ST-1016,745. 강서초등학교,126.8396988,37.52228165,9,1,10,양천구,신월4동
ST-1017,746. 목동2단지 상가,126.8777466,37.53650284,14,0,14,양천구,목5동
ST-1018,747. 목동3단지 상가,126.8756485,37.53458023,2,0,2,양천구,목5동
ST-1019,748. 목동운동장,126.879303,37.53025055,25,2,27,양천구,목1동
ST-1350,749. 이대목동병원보도육교,126.8866119,37.53722763,4,0,4,양천구,목5동
ST-1398,750. 연의근린공원 건너편,126.8356247,37.51215744,4,0,4,양천구,신정3동
ST-1400,752. 성원2차 아파트,126.8633041,37.54218292,13,0,13,양천구,목3동
ST-1495,754. 목동1단지아파트 118동 앞,126.8766785,37.54114151,10,0,10,양천구,목5동
ST-1496,755. 목동1단지아파트 상가 앞,126.8814087,37.5378685,5,0,5,양천구,목5동
ST-1497,756. 목동주차장,126.8761673,37.52667999,21,1,22,양천구,목1동
ST-1498,757. 신정이펜하우스 1단지아파트 입구 사거리,126.828743,37.51427841,18,1,19,양천구,신정3동
ST-1499,758. 한사랑교회 앞,126.8591995,37.51472092,15,5,20,양천구,신정7동
ST-1500,759. 보아스아파트 앞,126.8386002,37.52407074,14,0,14,양천구,신월4동
ST-1501,760. 잣절보도육교 아래,126.8442993,37.50682068,11,0,11,양천구,신정3동
ST-1503,762. 오목로 무중력지대 앞,126.8776627,37.52474213,1,1,2,양천구,신정2동
ST-1504,763. 목동11단지 아파트,126.8591614,37.51065826,0,0,0,양천구,신정7동
ST-1505,764. 목동청소년수련관,126.8758926,37.53102875,26,0,26,양천구,목1동
ST-1731,765. 오목교역 3번출구,126.8754807,37.52477646,20,0,20,양천구,목1동
ST-1736,766. 신목동역 3번출구,126.883461,37.54394913,2,0,2,양천구,목5동
ST-1993,767.신정숲속마을아파트,126.8363113,37.50574493,14,1,15,양천구,신정3동
ST-1994,768.목동5단지아파트 501동,126.8815842,37.53566742,13,3,16,양천구,목5동
ST-1995,769.CBS방송국 앞,126.8746719,37.52785492,31,2,33,양천구,목1동
ST-1996,770.목동역5번출구 교통정보센터 앞,126.8648682,37.52571487,6,4,10,양천구,목1동
ST-1997,771.목동아파트 703동 앞,126.870163,37.52820587,13,0,13,양천구,목1동
ST-1999,"773.염창역 3, 4번 출구 사이",126.8745728,37.54670715,3,0,3,양천구,목2동
ST-2000,774.등촌역 4번 출구 ,126.867218,37.54950714,2,0,2,양천구,목3동
ST-2001,775.세종그랑시아 앞(102동),126.8638306,37.53837585,16,2,18,양천구,목4동
ST-2002,776.목마공원,126.8856812,37.53874207,8,1,9,양천구,목5동
ST-2003,777.신월6차보람아파트 앞,126.8347778,37.53012848,0,0,0,양천구,신월1동
ST-2005,779. 신정1동 주민센터 앞,126.8538818,37.51854324,11,0,11,양천구,신정1동
ST-2006,780.신정교 하부,126.8776474,37.5173378,29,1,30,구로구,신정2동
ST-2007,781.신정보도육교 아래,126.8765564,37.51759338,1,0,1,양천구,신정2동
ST-2008,782.서남병원 후문,126.8327408,37.51167297,16,5,21,양천구,신정3동
ST-2011,"785.양천구청, 보건소 사잇길",126.8663025,37.51732635,36,1,37,양천구,신정6동
ST-2012,786.목동아파트 8단지 상가동 앞,126.8683014,37.52007294,1,1,2,양천구,신정6동
ST-2013,787.양천아파트 입구,126.862648,37.50790405,2,0,2,양천구,신정7동
ST-2014,788.양천구청역 2번출구 옆,126.8652802,37.51228714,16,0,16,양천구,신정7동
ST-2016,791.현대하이페리온,126.8697891,37.52490616,7,0,7,양천구,목1동
ST-2017,792.목동트라팰리스 웨스턴에비뉴,126.8709259,37.52537155,18,0,18,양천구,목1동
ST-2039,793.목동5단지아파트 534동,126.8778992,37.53302002,0,2,2,양천구,목5동
ST-2395,794.양천문화회관,126.8629608,37.51686478,7,1,8,양천구,신정6동
ST-2396,795.양천 해누리타운,126.8641129,37.51584244,6,1,7,양천구,신정6동
ST-2397,796.목동아파트 14단지 B상가 앞,126.8719406,37.5146637,1,0,1,양천구,신정6동
ST-2398,797.목동아파트 1422동 1434동 사잇길,126.8724899,37.51515579,4,0,4,양천구,신정6동
ST-322,800. 목월공원 앞,126.9547424,37.53243256,3,3,6,용산구,원효로1동
ST-324,802. 한강진역 2번 출구 앞,127.0022125,37.54115295,6,0,6,용산구,한남동
ST-325,803. 한남초교 앞 보도육교,127.004097,37.53813934,9,2,11,용산구,한남동
ST-326,805. 문배어린이공원 앞,126.9700012,37.53675842,0,0,0,용산구,원효로1동
ST-327,806. 전자랜드 본관 앞,126.9607315,37.5330658,8,0,8,용산구,한강로동
ST-328,807. 서울역 12번 출구 앞,126.9726868,37.55227661,11,4,15,용산구,남영동
ST-329,808. 서빙고동 금호맨션 앞,126.9897385,37.520504,0,3,3,용산구,서빙고동
ST-330,809. 한남 유수지 복개주차장,127.0074387,37.53016663,18,5,23,용산구,한남동
ST-331,810. 이태원지하보도,126.9866486,37.53841019,2,5,7,용산구,용산2가동
ST-332,811. 녹사평역1번출구,126.9853821,37.53507996,13,0,13,용산구,용산2가동
ST-333,812. 용산전쟁기념관,126.9776611,37.53483963,0,3,3,용산구,한강로동
ST-334,813. 삼각지역 3번출구,126.9722748,37.53351212,10,1,11,용산구,한강로동
ST-335,815. LIG강촌아파트 103동앞,126.9787979,37.51850891,16,4,20,용산구,이촌1동
ST-435,816. 신용산역 6번출구 앞,126.968483,37.53014755,22,2,24,용산구,한강로동
ST-436,817. 삼각지역 4번출구 앞,126.9717331,37.53345108,7,4,11,용산구,한강로동
ST-437,818. 숙명여대 입구 교차로,126.9693832,37.54489517,1,0,1,용산구,청파동
ST-438,819. 선린인터넷 고등학교,126.9705048,37.54165268,6,1,7,용산구,청파동
ST-439,820. 청파동입구 교차로,126.9719467,37.54902649,0,0,0,용산구,남영동
ST-440,822. 이촌1동 마을공원,126.9661865,37.52202606,0,0,0,용산구,이촌1동
ST-441,823. 효창동주민센터 앞,126.9619598,37.54232025,4,2,6,용산구,청파동
ST-442,825. 서빙고동 주민센터 앞,126.9942627,37.52033615,12,3,15,용산구,서빙고동
ST-946,826. 서울역 서부교차로2,126.9686432,37.55536652,29,4,33,용산구,청파동
ST-1324,827. 국군복지단,126.97966,37.54188538,0,0,0,용산구,용산2가동
ST-1325,828. 숙대입구역 8번,126.9720001,37.54407883,8,0,8,용산구,남영동
ST-1326,829. 베르가모앞,126.9616928,37.52293015,13,6,19,용산구,한강로동
ST-1327,830. 청암자이아파트앞,126.9485703,37.53442383,0,3,3,용산구,원효로1동
ST-1328,831. 이태원관광특구입구,126.9885635,37.53427887,4,0,4,용산구,이태원1동
ST-1339,832. 이촌1동 주민센터 뒤,126.973465,37.5212822,14,3,17,용산구,이촌1동
ST-1341,834. 효창공원앞역 3번출구 뒤,126.96138,37.53900909,11,4,15,용산구,용문동
ST-1342,835. 남영역 건너편,126.9715424,37.54198074,11,3,14,용산구,남영동
ST-1343,836. 현대자동차서비스 앞,126.9514999,37.53142166,2,0,2,용산구,원효로1동
ST-1344,837. 한남나들목 입구,127.0067291,37.52906036,6,4,10,용산구,한남동
ST-1376,838. 숙대입구역 4번출구,126.9723892,37.5444603,17,1,18,용산구,남영동
ST-1441,839. 보광동 삼성리버빌아파트 앞,127.0014496,37.5240097,0,1,1,용산구,서빙고동
ST-1442,840. 용산 파크타워 앞,126.9702683,37.52365112,1,4,5,용산구,한강로동
ST-1443,841. 신용산역 1번 출구,126.9688721,37.52960968,15,5,20,용산구,한강로동
ST-1446,844. 이촌2동 동원베네스트 아파트 앞,126.9551621,37.5271492,14,3,17,용산구,한강로동
ST-1615,845. 용산 선인상가,126.9643784,37.53269958,8,2,10,용산구,한강로동
ST-1721,846. 용산중학교,126.9809494,37.54650116,2,0,2,용산구,후암동
ST-2172,848. 삼각지12번 출구,126.9756241,37.53488922,21,6,27,용산구,남영동
ST-2173,849. 삼각지 자이아파트,126.9734192,37.53607941,21,1,22,용산구,한강로동
ST-2174,850. KCC용산월츠타워 ,126.9689255,37.53739929,4,3,7,용산구,원효로1동
ST-2175,851.효창 푸르지오 앞,126.9581146,37.54047775,2,0,2,용산구,공덕동
ST-2176,852.청암자이APT(103동),126.9471817,37.53452682,4,4,8,용산구,원효로1동
ST-2177,853.용산역 맞은편,126.9656906,37.52856827,12,1,13,용산구,한강로동
ST-2178,854.HID 유족동지회 앞,127.0015488,37.53872681,0,2,2,용산구,한남동
ST-2179,855.이촌역5번출구 앞,126.9727707,37.52272415,2,4,6,용산구,이촌1동
ST-2181,857. 현대 안성타워,126.9980545,37.53502274,12,3,15,용산구,한남동
ST-2182,858.녹사평역3번 출구,126.9868927,37.53440857,6,0,6,용산구,용산2가동
ST-2184,860.LG한강 자이아파트 앞,126.9708252,37.52074814,1,2,3,용산구,이촌1동
ST-2187,863.이촌역2번 출구,126.977005,37.52177048,8,0,8,용산구,한강로동
ST-2188,864.순천향대학병원(한남오거리),127.0060043,37.53514099,6,2,8,용산구,한남동
ST-2189,865.하얏트호텔 앞,126.9978485,37.54079437,4,0,4,용산구,한남동
ST-2190,866.브라운스톤 남산아파트,126.9768601,37.551548,1,2,3,용산구,후암동
ST-2191,867.서빙고역 광장(1번출구),126.9892349,37.51990891,15,4,19,용산구,서빙고동
ST-2239,869.노들섬 동측 앞,126.9591446,37.51729584,9,2,11,용산구,이촌1동
ST-2240,870.노들섬 서측 앞,126.9582977,37.51731873,10,1,11,용산구,이촌2동
ST-448,900. 은평예술회관,126.9276962,37.60394287,13,3,16,은평구,응암1동
ST-450,902. 진관동 은빛초등학교,126.9182205,37.64310837,0,1,1,은평구,진관동
ST-451,903. 은평뉴타운 아이파크,126.9273911,37.64586639,25,0,25,은평구,진관동
ST-452,904. 은평뉴타운 푸르지오,126.9307022,37.64867401,9,2,11,은평구,진관동
ST-453,905. 구파발역 2번출구,126.9189987,37.63623428,15,5,20,은평구,진관동
ST-454,906. 연신내역 5번출구,126.9195786,37.61721039,12,0,12,은평구,대조동
ST-455,907. CJ 드림시티,126.9168625,37.59949112,9,2,11,은평구,응암1동
ST-456,908. 구산역 4번출구,126.9173508,37.61318588,3,0,3,은평구,갈현2동
ST-457,909. 백련산 힐스테이트 3차,126.9228821,37.58699417,1,2,3,은평구,응암2동
ST-459,911. 은평평화공원(역촌역4번출구),126.9229355,37.60558319,9,1,10,은평구,응암1동
ST-460,912. 응암오거리,126.9169464,37.58966064,16,2,18,은평구,응암3동
ST-461,913. 이마트 버스정류장(서부경찰서 방면),126.9201279,37.60070038,6,0,6,은평구,응암1동
ST-462,914. 새절역 2번출구,126.9136505,37.59079742,7,2,9,은평구,신사2동
ST-463,915. 증산역 4번출구,126.9098969,37.5843811,3,1,4,은평구,증산동
ST-464,916. 평생학습관 앞,126.9213257,37.60784912,13,1,14,은평구,대조동
ST-465,917. 녹번역 3번출구,126.9352112,37.60078049,1,0,1,은평구,응암1동
ST-467,919. 서울혁신파크,126.9333115,37.60702515,0,0,0,은평구,녹번동
ST-469,921. 신도고등학교,126.9190292,37.63001633,3,0,3,은평구,진관동
ST-470,922. 연신내역 4번출구,126.9219666,37.61780167,4,0,4,은평구,대조동
ST-471,923. 국민은행 연서지점,126.9256363,37.62094879,2,0,2,은평구,불광1동
ST-472,924. 메뚜기다리,126.9295807,37.62851715,5,0,5,은평구,불광2동
ST-473,925. 불광역 2번출구,126.9309769,37.60956573,0,0,0,은평구,불광1동
ST-475,927. 연신내역 3번출구 인근,126.9225235,37.61785507,8,1,9,은평구,대조동
ST-476,928. 은평역사한옥박물관,126.9380417,37.64131546,4,3,7,은평구,진관동
ST-478,930. 구 서부경찰서 건너편,126.9203033,37.60166168,7,0,7,은평구,역촌동
ST-479,931. 역촌파출소,126.9153366,37.60473633,4,0,4,은평구,구산동
ST-480,932. 예일여중,126.9163971,37.61000443,7,0,7,은평구,구산동
ST-481,933. 역촌종합시장 버스정류장(예일여고 방면),126.9148789,37.61248398,0,0,0,은평구,구산동
ST-1020,934. 신사동 성당,126.9095993,37.59714127,8,2,10,은평구,신사1동
ST-1023,937. 상림마을 롯데캐슬2단지 옆,126.9237976,37.64585114,12,0,12,은평구,진관동
ST-1024,938. 금암 문화공원,126.918457,37.64468384,14,0,14,은평구,진관동
ST-1025,939. 은평구청 교차로,126.9274216,37.60169983,8,3,11,은평구,응암1동
ST-1027,941. 은평뉴타운 도서관,126.9333038,37.63722229,7,0,7,은평구,진관동
ST-1028,942. 상림마을 생태공원,126.9292831,37.64408112,12,0,12,은평구,진관동
ST-1031,945. 기자촌 사거리,126.9323425,37.63414001,5,0,5,은평구,진관동
ST-1032,946. 독바위역 ,126.9328842,37.61843872,10,1,11,은평구,불광1동
ST-1033,947. 연신내 선일하이츠빌 정류소,126.9199905,37.62266922,1,0,1,은평구,불광2동
ST-1034,948. 디지털미디어 시티역 4번출구(DMC역),126.9023514,37.57720184,9,2,11,은평구,증산동
ST-1035,949. 연신내역 1번 출구 ,126.9208069,37.61978149,4,1,5,은평구,불광2동
ST-1036,950. 구산역 2번 출구 예일여고 버스정류장,126.9167938,37.60980225,8,2,10,은평구,구산동
ST-1038,952. 서울연신중학교,126.9252472,37.62265015,1,0,1,은평구,불광2동
ST-1039,953. 서울연신초등학교,126.9288178,37.6257782,5,2,7,은평구,불광2동
ST-1329,954. 은평뉴타운구파발9단지,126.9214783,37.64260864,3,0,3,은평구,진관동
ST-1331,956. 응암시장교차로,126.9180145,37.59441376,1,1,2,은평구,응암3동
ST-1479,958. 본 서부병원 버스정류장(은평 세무서 방면),126.9228134,37.60036087,14,3,17,은평구,응암1동
ST-1480,959. 구파발10단지 인근,126.9145584,37.6436615,5,0,5,은평구,진관동
ST-1481,960. 구파발역 환승센터,126.9194565,37.63825226,10,1,11,은평구,진관동
ST-1482,961. 불광역 9번 출구,126.9298096,37.61096954,7,0,7,은평구,불광1동
ST-1483,962. 은평뉴타운 힐데스하임,126.9189072,37.63925934,6,5,11,은평구,진관동
ST-1484,963. 대호프라자아파트,126.932579,37.61442947,0,0,0,은평구,불광1동
ST-1485,964. 북한산힐스테이트 7차아파트,126.9251251,37.61654282,7,0,7,은평구,불광1동
ST-1486,965. 서울특별시 은평병원,126.9231873,37.59347916,2,0,2,은평구,응암2동
ST-1487,966. 서울혁신파크1,126.9346771,37.60903168,0,2,2,은평구,녹번동
ST-1488,967. 서울혁신파크2,126.9324188,37.60890961,0,0,0,은평구,불광1동
ST-1489,968. 은평뉴타운 상림마을 13단지,126.9294128,37.64208984,0,2,2,은평구,진관동
ST-1490,969. 은평 지웰테라스,126.9321365,37.64339447,5,3,8,은평구,진관동
ST-1674,971. 역촌 센트레빌 아파트,126.9065476,37.60232925,4,1,5,은평구,신사1동
ST-1751,972. 수색역,126.894928,37.58216095,9,0,9,은평구,수색동
ST-2241,973.제각말푸르지오 5-1단지 아파트,126.9358444,37.63734818,0,3,3,은평구,진관동
ST-2242,974.연신초등학교옆 마을마당,126.9290161,37.62672043,5,0,5,은평구,불광2동
ST-2243,975.백련산 힐스테이트상가앞,126.9230118,37.59036255,7,3,10,은평구,응암2동
ST-2244,976.진관고등학교앞,126.9241028,37.64350891,4,0,4,은평구,진관동
ST-2245,977.신도중학교앞,126.9315033,37.63310242,7,0,7,은평구,진관동
ST-2246,978.녹번 힐스테이트상가앞,126.9359283,37.60100937,6,1,7,은평구,녹번동
ST-2247,979.원풍빌라앞,126.9060822,37.59186172,0,0,0,은평구,신사2동
ST-2250,982. 녹번초등학교(서오릉로),126.925087,37.60412598,5,2,7,은평구,응암1동
ST-2252,984.상신초등학교앞 버스정류장,126.9102631,37.59580994,7,0,7,은평구,신사1동
ST-2253,985. 은평세무서 버스정류장(은평구청 방면),126.926384,37.60119247,6,8,14,은평구,응암1동
ST-2257,989. 신응교(가좌로) 앞,126.9148331,37.59181213,3,1,4,은평구,응암3동
ST-2259,991.흥국사 정류장,126.942009,37.6567688,6,0,6,은평구,진관동
ST-2260,992.북한산입구 정류장,126.9460602,37.65842819,4,2,6,은평구,진관동
ST-2261,993.은평뉴타운 은뜨락아파트앞,126.9195633,37.63028717,8,1,9,은평구,진관동
ST-2262,994.북한산생태공원입구(교통섬),126.9385376,37.61050797,3,0,3,은평구,불광1동
ST-2263,995.은평다목적체육관,126.9254074,37.63140869,7,1,8,은평구,진관동
ST-2264,996.응암역2번출구 국민은행 앞,126.9157257,37.59996796,6,2,8,은평구,구산동
ST-485,1001. 광진교 남단 사거리(천호공원 방면),127.1247482,37.54179382,16,0,16,강동구,천호2동
ST-486,1002. 해공공원(천호동),127.1259384,37.5452652,7,0,7,강동구,천호2동
ST-487,1003. 해공도서관앞,127.1254883,37.54395676,4,2,6,강동구,천호2동
ST-488,1004. 삼성광나루아파트 버스정류장,127.1288681,37.55332947,17,2,19,강동구,암사1동
ST-490,1006. 롯데캐슬 115동앞,127.1427994,37.55486679,0,0,0,강동구,암사1동
ST-491,1007.암사동 선사유적지,127.1308746,37.55955887,7,1,8,강동구,암사2동
ST-492,1008. 암사역 3번출구(국민은행앞),127.127182,37.54957581,27,7,34,강동구,천호2동
ST-493,1009. 천호역4번출구(현대백화점),127.1242447,37.53866577,16,0,16,강동구,천호2동
ST-494,1010. 강동세무서,127.1384049,37.53450775,13,1,14,강동구,길동
ST-495,1011. LIGA 아파트 앞,127.1352844,37.53474426,2,0,2,강동구,성내3동
ST-496,1012. 서울 상운차량,127.1227264,37.53600693,4,2,6,강동구,성내2동
ST-497,1013. 강동구청역 1번 출입구,127.1209869,37.53071594,9,0,9,강동구,성내1동
ST-499,1015. 샛마을 근린공원,127.1469116,37.55003738,2,0,2,강동구,명일1동
ST-500,1016. 해뜨는 주유소옆 리엔파크 109동앞,127.1711807,37.55939865,16,7,23,강동구,고덕2동
ST-501,1017. 둔촌고교입구 교차로(길동주민센터 방면),127.1451874,37.53544617,7,0,7,강동구,길동
ST-830,1018. 둔촌 주공 GS 맞은편,127.1354218,37.52458954,2,1,3,강동구,둔촌1동
ST-502,1019. 다성이즈빌아파트(호원대 대각선 맞은편),127.1300583,37.52679443,26,2,28,강동구,성내1동
ST-503,1020. 강동경찰서,127.1268005,37.52825165,53,6,59,강동구,성내1동
ST-504,1021. 강일동 리슈빌 빌딩앞,127.1739731,37.56427383,82,3,85,강동구,강일동
ST-505,1022. 길동 사거리(초소앞),127.1379929,37.53377914,1,0,1,강동구,성내3동
ST-1040,1023. 한국종합기술사옥 앞,127.1747055,37.54998398,24,3,27,강동구,상일2동
ST-1041,1024.  강동구청 앞,127.1231537,37.52929688,66,4,70,강동구,성내1동
ST-1042,1025. 상일초등학교,127.1725159,37.54684067,22,2,24,강동구,상일1동
ST-1043,1026. 대명초교 입구 교차로,127.155838,37.54653549,1,0,1,강동구,상일1동
ST-1044,1027. 프라자 아파트 앞,127.1478195,37.53596115,14,0,14,강동구,길동
ST-1045,1028. 포레스 주상복합 빌딩,127.1227722,37.53310776,0,0,0,강동구,성내2동
ST-1046,1029. 성내어울터,127.1255341,37.53655624,5,1,6,강동구,성내2동
ST-1047,1030. 미호 플랜트 앞,127.1220627,37.52703094,20,2,22,강동구,성내1동
ST-1048,1031. 올림픽로 836(아리수로),127.1299133,37.55582047,25,5,30,강동구,암사3동
ST-1049,1032. 선사고등학교,127.136261,37.55672836,0,8,8,강동구,암사3동
ST-1050,1033. 고덕동 아남아파트,127.1447678,37.55793381,0,0,0,강동구,고덕1동
ST-1051,1034. 고덕동 래미안 힐스테이트,127.1507874,37.5618782,9,0,9,강동구,고덕1동
ST-1052,1035. 고덕역 4번출구,127.1552811,37.55509567,1,0,1,강동구,명일2동
ST-1053,1036. 고덕동 주양쇼핑,127.1533127,37.55199051,4,1,5,강동구,명일2동
ST-1054,1037. 강일리버파크 6단지,127.1776123,37.56256485,20,1,21,강동구,강일동
ST-1055,1038. 강일 다솜 어린이 공원,127.1748047,37.56863785,15,0,15,강동구,강일동
ST-1056,1039. 고덕초등학교,127.1678467,37.56129837,0,0,0,강동구,고덕2동
ST-1058,1041. 묘곡초등학교,127.1533203,37.55916214,1,0,1,강동구,고덕1동
ST-1059,1042. 강일리버파크 2~5단지,127.1770096,37.5685463,25,3,28,강동구,강일동
ST-1061,1044. 굽은다리역,127.1426773,37.54540634,38,5,43,강동구,천호1동
ST-1369,1047. 강동 한신휴플러스,127.1371536,37.53647232,1,0,1,강동구,길동
ST-1370,1048. 둔촌어린이공원,127.1423721,37.53099442,0,0,0,강동구,둔촌2동
ST-1371,1049. 강일리버파크 10단지,127.1802673,37.561203,11,8,19,강동구,강일동
ST-1420,1050.  둔촌역 3번 출입구,127.1355743,37.52678299,30,6,36,강동구,성내3동
ST-1421,"1051. 강일중,선사고 버스정류장(신암중학교 방면)",127.1373215,37.55483627,6,1,7,강동구,암사1동
ST-1593,1052. 리싸이클시티,127.1568222,37.55644989,1,0,1,강동구,고덕2동
ST-1594,1053. 동명근린공원 진입로 (아리수로),127.1644821,37.56254578,16,0,16,강동구,고덕2동
ST-1595,1054. 말우물 어린이 공원,127.1696777,37.56002808,24,2,26,강동구,고덕2동
ST-1597,1056. 강일리버파크 7~11단지,127.1790543,37.56335449,40,0,40,강동구,강일동
ST-1598,1057. 능골근린공원,127.1737442,37.55580902,17,0,17,강동구,상일2동
ST-1623,1058. 고덕숲 아이파크 1,127.1650543,37.55348206,5,3,8,강동구,상일1동
ST-1626,1059. 래미안 강동팰리스(102동),127.1317444,37.53822708,17,0,17,강동구,천호3동
ST-1620,1060. 천일초교 사거리,127.1326752,37.5446701,0,0,0,강동구,천호1동
ST-1621,1061. 천호초교 입구 사거리(일주빌딩),127.1346664,37.54689789,0,0,0,강동구,천호1동
ST-1622,1062. 고덕숲 아이파크 2,127.1625977,37.5510788,0,0,0,강동구,상일1동
ST-1762,1063.강동롯데캐슬퍼스트 아파트(관리동),127.1427383,37.55666351,13,1,14,강동구,암사3동
ST-1763,1064.중앙보훈병원역 1번출구,127.147644,37.52779388,0,0,0,강동구,둔촌2동
ST-1764,1065.보훈병원 후문옆(더 원커피),127.1492691,37.53120804,0,0,0,강동구,둔촌2동
ST-1765,1066.생태공원앞 교차로(조명탑),127.1520157,37.5377655,6,1,7,강동구,길동
ST-1766,1067.한영중고앞사거리,127.1560516,37.54903412,0,0,0,강동구,상일1동
ST-1767,1068.명일파출소,127.1562271,37.5536499,0,1,1,강동구,명일2동
ST-1830,1069.강동경희대학교병원 입구,127.1568832,37.55305481,0,0,0,강동구,상일1동
ST-1831,1070.(시립)고덕평생학습관,127.1579208,37.55570221,1,0,1,강동구,고덕2동
ST-1832,1071.명일근린공원공동체텃밭,127.1599121,37.55568695,0,0,0,강동구,상일1동
ST-1833,1072.고덕역 5번출구,127.1537247,37.55486298,2,0,2,강동구,명일2동
ST-1834,1073. SSTS 몰 앞,127.1410523,37.54114532,10,6,16,강동구,천호3동
ST-1835,1074.대명초교입구 사거리,127.1491623,37.54683685,22,1,23,강동구,명일2동
ST-1836,1075.천동초교 삼거리,127.1371841,37.54136276,4,0,4,강동구,천호3동
ST-1837,1076. 천동초교입구사거리 버스정류장(십자성마을 방면),127.141037,37.5398941,11,1,12,강동구,길동
ST-1838,1077.강동역 1번출구 앞,127.1325607,37.53620529,1,0,1,강동구,천호3동
ST-1839,1078.둔촌사거리,127.1336212,37.52197647,38,3,41,강동구,성내3동
ST-1840,1079.강일동입구교차로,127.170845,37.56184387,6,0,6,강동구,고덕2동
ST-1841,1080.엘웨딩,127.128418,37.5368309,4,0,4,강동구,성내2동
ST-1842,1081.트레빌빌딩,127.1295319,37.53699875,0,0,0,강동구,천호3동
ST-1843,1082.중앙보훈병원역3번출구,127.1490097,37.52956009,3,0,3,강동구,둔촌2동
ST-1844,1083.광문고교사거리(아이파크),127.1565933,37.56036758,11,0,11,강동구,고덕1동
ST-1687,1084. 윤선생빌딩(JYP사옥),127.1291275,37.5239296,20,2,22,강동구,성내3동
ST-1845,1085.래미안 솔베뉴(고덕로),127.145874,37.55456924,5,2,7,강동구,명일1동
ST-1846,1086.래미안 솔베뉴(구천면로),127.1454544,37.55059814,1,0,1,강동구,명일1동
ST-1848,1088.풍납사거리(강동),127.1195221,37.52812195,12,0,12,송파구,성내1동
ST-1849,1089.고덕 래미안힐스테이트(201동),127.146698,37.56060028,0,0,0,강동구,고덕1동
ST-1850,1090.상일동역 2번출구 앞,127.1661453,37.5567894,7,0,7,강동구,고덕2동
ST-507,1101. 개화동상사마을종점 버스정류장,126.7985992,37.58161163,10,0,10,강서구,방화2동
ST-508,1102. 방화사거리 마을버스 버스정류장,126.8118057,37.57364273,5,0,5,강서구,방화1동
ST-831,1103. 방화역 4번출구앞,126.8119965,37.57710648,6,0,6,강서구,방화3동
ST-509,1105. 방화근린공원,126.8126526,37.58162308,14,0,14,강서구,방화3동
ST-824,1106. 신방화사거리,126.816452,37.57303238,1,0,1,강서구,방화1동
ST-510,1108. 공항시장역 2번출구 뒤,126.8106079,37.56387329,5,0,5,강서구,방화1동
ST-511,1109. 공항시장역 4번출구,126.8104858,37.56334686,1,2,3,강서구,공항동
ST-828,1110. 공항중학교앞,126.816246,37.56220245,3,0,3,강서구,공항동
ST-512,1111. 마곡엠밸리6_7단지 마곡중학교,126.8218002,37.56698227,7,0,7,강서구,방화1동
ST-513,1112. 마곡엠밸리4단지 정문,126.8247757,37.56857681,11,0,11,강서구,가양1동
ST-514,1113. 서남환경공원 버스정류장,126.8223877,37.57312393,2,0,2,강서구,가양1동
ST-834,1117. 등촌5단지아파트 버스정류장,126.8442612,37.55819702,2,1,3,강서구,등촌3동
ST-516,1118. 증미역 3번출구뒤(등촌두산위브센티움오피스텔),126.8614578,37.55746078,10,1,11,강서구,등촌1동
ST-517,1119. 염창동 한마음아파트 앞,126.8675613,37.55425262,5,0,5,강서구,염창동
ST-518,1120. 대림경동아파트앞,126.8546448,37.564785,3,0,3,강서구,가양2동
ST-519,1121. 가양레포츠센터 앞,126.8643799,37.55947876,12,0,12,강서구,가양3동
ST-520,1122. 황금내근린공원,126.8641663,37.56192398,6,1,7,강서구,가양3동
ST-522,1124. 발산역 6번 출구 뒤,126.8384552,37.55817795,10,3,13,강서구,우장산동
ST-835,1125. 명덕고교입구(영종빌딩),126.8365707,37.55291367,19,0,19,강서구,우장산동
ST-523,1126. 우장산역 1번출구옆(우장산아이파크105동앞),126.8365631,37.54890823,4,1,5,강서구,우장산동
ST-524,1127. 화곡역 버스정류장,126.8385468,37.54098129,17,1,18,강서구,화곡1동
ST-829,1128. 화곡역 6번출구,126.8402252,37.54141235,6,0,6,강서구,화곡1동
ST-525,1129. 화곡역 1번 출구 앞,126.8402176,37.542099,9,0,9,강서구,우장산동
ST-526,1130. 화곡본동시장 버스정류장,126.8426209,37.54275131,1,0,1,강서구,화곡본동
ST-528,1132. 등촌역 7번출구,126.8637085,37.55110931,4,1,5,강서구,등촌2동
ST-530,1135. 강서구의회,126.8625488,37.54653168,13,0,13,강서구,등촌2동
ST-531,1136. 등촌2파출소,126.8619995,37.54478836,10,0,10,강서구,등촌2동
ST-532,1137. 등촌2동주민센터,126.8633728,37.54126358,12,4,16,강서구,등촌2동
ST-533,1139. 용문사 버스정류장,126.8633347,37.53650665,1,0,1,강서구,등촌2동
ST-534,1140. 목동사거리 버스정류장,126.8636093,37.53139877,3,1,4,강서구,화곡4동
ST-535,1141. 곰달래 문화복지센터 1-1,126.8484802,37.52906036,11,0,11,강서구,화곡8동
ST-536,1145. 곰달래 문화복지센터 1-2,126.8480835,37.52891922,3,0,3,강서구,화곡1동
ST-538,1148. 볏골공원,126.84478,37.54146957,2,0,2,강서구,화곡본동
ST-975,1149. 신방화역환승주차장,126.8182755,37.56728363,13,0,13,강서구,방화1동
ST-1062,1150. 송정역 1번출구,126.8106995,37.56153107,7,3,10,강서구,공항동
ST-1063,1151. 마곡역1번출구,126.8241425,37.56020737,5,1,6,강서구,공항동
ST-1064,1152. 마곡역교차로,126.8265228,37.55831146,38,1,39,강서구,발산1동
ST-1065,"1153. 발산역 1번, 9번 인근 대여소",126.8371735,37.55894852,23,0,23,강서구,가양1동
ST-1067,1155. 기쁜우리복지관,126.8484192,37.56925964,4,0,4,강서구,가양1동
ST-1069,1157. 강서구청,126.8497696,37.55065918,4,0,4,강서구,화곡6동
ST-1249,1158. 가양역 8번출구,126.8548126,37.56103516,25,1,26,강서구,가양2동
ST-1250,1159. 서서울모터리움 앞,126.8465958,37.56585312,20,2,22,강서구,가양1동
ST-1251,1160. 양천향교역 7번출구앞,126.8408966,37.56768036,13,1,14,강서구,가양1동
ST-1252,1161. 강서면허시험장 앞,126.819664,37.54969406,0,1,1,강서구,발산1동
ST-1253,1162. 공항초등학교건너편,126.8204727,37.56267929,2,0,2,강서구,공항동
ST-1254,1163. 방화동강서기동대앞,126.8200836,37.57049942,3,0,3,강서구,방화1동
ST-1338,1165. 마곡중학교 후문,126.8216476,37.56844711,6,0,6,강서구,방화1동
ST-1351,1166. 강서구립등빛도서관,126.8424606,37.56256866,8,1,9,강서구,등촌3동
ST-1352,1167. 마곡수명산파크3단지 교차로,126.8258667,37.55350876,1,2,3,강서구,발산1동
ST-1402,1168. 마곡엠밸리10단지 앞,126.8187561,37.56029129,3,1,4,강서구,공항동
ST-1506,1169. 염창역 1번 출구,126.8744888,37.54719925,5,0,5,강서구,염창동
ST-1507,1170. 강서구보건소,126.8687973,37.54917908,16,2,18,강서구,염창동
ST-1508,1171. 염창동 새마을금고 건너편,126.8731613,37.55004883,2,0,2,강서구,염창동
ST-1509,1172. 가양3동 주민센터,126.8605804,37.56124878,4,3,7,강서구,가양3동
ST-1510,1173. 강서구청사거리(SH타워),126.8530731,37.55673599,7,0,7,강서구,등촌1동
ST-1511,1174. 강서구청사거리(부민병원),126.8511658,37.55661392,1,0,1,강서구,등촌3동
ST-1512,1175. 대한항공 인력개발센터,126.8575363,37.55437851,9,3,12,강서구,등촌1동
ST-1514,1177. 수명중?고교,126.8236771,37.55010986,0,1,1,강서구,발산1동
ST-1515,1178. 개화산역 2번 출구,126.8061676,37.57247162,3,0,3,강서구,방화2동
ST-1517,1180. 마곡엠밸리 15단지(1502동) 건너편,126.8297195,37.55746841,3,2,5,강서구,발산1동
ST-1518,1181. 농수산식품공사 (강서지사),126.8184967,37.55104446,6,0,6,강서구,발산1동
ST-1519,1182. KBS 스포츠월드,126.8488083,37.55687714,3,0,3,강서구,등촌3동
ST-1520,1183. KC 대학교,126.8534012,37.54832077,12,0,12,강서구,화곡6동
ST-1645,1184. 마곡13단지,126.815979,37.55644989,4,1,5,강서구,공항동
ST-1646,1185. 등촌9단지,126.8494721,37.56290054,2,0,2,강서구,등촌3동
ST-1647,1186. 송정중학교,126.8160934,37.55472946,4,0,4,강서구,공항동
ST-1676,1187. 강서수산물도매시장,126.818367,37.55302048,10,2,12,강서구,발산1동
ST-1708,1188. 롯데중앙연구소,126.8283386,37.57138062,8,2,10,강서구,가양1동
ST-1709,1190. 마곡역 교차로(2번출구),126.8266525,37.5605011,5,0,5,강서구,공항동
ST-1689,"1191. 마곡역 버스정류장(마곡나루역1번출구, 웰튼병원 방면)",126.8271637,37.5602417,9,1,10,강서구,가양1동
ST-1710,1192. 마곡수명산파크 209동 건너편,126.8268967,37.55545044,20,1,21,강서구,발산1동
ST-1688,1193. 마곡센트럴타워 1차,126.832077,37.55947113,31,0,31,강서구,가양1동
ST-1711,1194. 센서텍㈜,126.8368225,37.56330109,21,0,21,강서구,가양1동
ST-1712,1195. 코오롱One&Only타워,126.8343124,37.56412888,24,2,26,강서구,가양1동
ST-1713,1196. 서울식물원(문화센터) 건너편,126.8358307,37.56824112,11,0,11,강서구,가양1동
ST-1714,1197. 엠펠리체 호텔 건너편,126.8358078,37.5602417,4,2,6,강서구,가양1동
ST-1715,1198. LG 사이언스파크,126.8274384,37.56254959,0,0,0,강서구,가양1동
ST-1694,1199. 우장산역 3번출구,126.8361282,37.54782104,20,0,20,강서구,발산1동
ST-1695,1200. 개화광역환승센터,126.7989731,37.57844925,7,0,7,강서구,방화2동
ST-838,1201. 가락시장역 3번 출구,127.1185455,37.49317932,18,8,26,송파구,가락본동
ST-737,1203. 밀리아나2빌딩 앞,127.1206207,37.49372864,44,5,49,송파구,가락본동
ST-930,1204. 거여역 3번출구,127.1447296,37.49334335,3,0,3,송파구,거여2동
ST-539,1205. 종합운동장역 4번출구,127.071373,37.51042938,22,3,25,송파구,잠실7동
ST-540,1206. 9호선종합운동장역 9번출구,127.0782394,37.51128006,13,5,18,송파구,잠실7동
ST-738,1207. 마천중앙시장,127.152504,37.49975586,3,1,4,송파구,마천2동
ST-541,1208. 풍납현대아파트쉼터,127.1199646,37.52974701,23,3,26,송파구,성내1동
ST-542,1209. 잠실나루역 (2번 출구 쪽),127.1042023,37.52045059,1,1,2,송파구,행정동
ST-891,1210. 롯데월드타워(잠실역2번출구 쪽),127.1009598,37.51312637,29,0,29,송파구,잠실6동
ST-839,1212. 송파역 2번 출구앞,127.1128693,37.49941254,10,9,19,송파구,송파2동
ST-543,1213. 백토공원 앞,127.1332169,37.50831985,2,0,2,송파구,오륜동
ST-740,1214. 오금역 7번 출구 인근,127.1276474,37.50259399,5,0,5,송파구,가락본동
ST-544,1215. 올림픽공원역 1번출구 앞,127.1315384,37.51657104,5,0,5,송파구,오륜동
ST-545,1217. 송파파인타운 7단지,127.1297989,37.47930527,2,0,2,송파구,장지동
ST-892,1218. 방이역 4번출구,127.1258392,37.50896835,34,11,45,송파구,방이1동
ST-546,1220. 잠실근린공원,127.0840378,37.50569153,10,0,10,송파구,잠실본동
ST-933,1221. 삼전역 4번출구,127.087532,37.50419998,15,0,15,송파구,잠실본동
ST-547,1222. 잠실새내역 5번 출구 뒤,127.0850525,37.51198196,20,1,21,송파구,잠실2동
ST-548,1224. 아시아지하보도 2번 출구,127.0789337,37.51216888,7,3,10,송파구,잠실2동
ST-894,1226. 잠실4동 주민센터 옆,127.1123657,37.52007675,10,0,10,송파구,행정동
ST-895,1227. 거여역 8번출구 뒤,127.1438217,37.49312592,0,0,0,송파구,거여1동
ST-896,1228. 마천사거리 ,127.1462021,37.49769974,9,1,10,송파구,거여2동
ST-549,1229. 송파체육문화회관 앞,127.1431274,37.49068832,0,0,0,송파구,거여2동
ST-897,1230. 송파중학교 정문,127.1305924,37.49567032,0,0,0,송파구,가락2동
ST-840,1231. 잠실역 6번출구,127.0990295,37.51408768,14,0,14,송파구,잠실3동
ST-550,1232. 잠실주공 521동 건너편,127.0961914,37.51208878,17,0,17,송파구,잠실3동
ST-551,1233. 잠실3거리(갤러리아팰리스),127.0933685,37.51050949,23,4,27,송파구,잠실3동
ST-553,1235. 잠실트리지움310동 옆,127.0871658,37.50887299,10,1,11,송파구,잠실3동
ST-899,1239. 문정 법조단지3,127.1180115,37.48084259,20,2,22,송파구,문정2동
ST-900,1240. 문정 법조단지4,127.1185684,37.48057556,7,3,10,송파구,문정2동
ST-901,1241. 문정 법조단지5,127.1197968,37.48123932,3,3,6,송파구,문정2동
ST-902,1242. 문정 법조단지6,127.1191635,37.48163223,20,0,20,송파구,문정2동
ST-903,1243. 문정 법조단지7,127.120163,37.4845314,28,3,31,송파구,문정2동
ST-904,1244. 문정 법조단지8,127.1221237,37.48153687,9,2,11,송파구,문정2동
ST-905,1245. 문정 법조단지9,127.1253281,37.47946548,8,0,8,송파구,문정2동
ST-906,1246. 문정 법조단지10,127.1263275,37.47750854,11,0,11,송파구,문정2동
ST-907,1247. 문정 법조단지11,127.1235123,37.4788208,5,1,6,송파구,문정2동
ST-908,1248. 방이초등학교,127.1216736,37.51396179,17,3,20,송파구,방이1동
ST-909,1249. 아주중학교건너편,127.0773468,37.50546265,1,0,1,송파구,잠실7동
ST-981,1250.문정2동 주민센터,127.1108398,37.48987198,16,0,16,송파구,문정2동
ST-1070,1251. 석촌역 2번출구,127.1077499,37.50593185,10,0,10,송파구,송파1동
ST-1072,1253. 오금역 3번 출구 뒤,127.1281815,37.50165176,9,0,9,송파구,가락2동
ST-1075,1256. 문정현대아파트 교차로,127.1258087,37.49113083,0,0,0,송파구,문정1동
ST-1076,1257. 가락시장역 사거리,127.1177521,37.49209976,21,4,25,송파구,문정2동
ST-1077,1258. 가락미륭아파트 앞,127.1289978,37.49319839,0,0,0,송파구,가락2동
ST-1078,1259. 방이역 1번출구,127.1265945,37.50898361,16,3,19,송파구,오금동
ST-1079,1260. 방이동 한양3차아파트 옆,127.1213989,37.50630188,1,0,1,송파구,방이1동
ST-1081,1262. 송파여성문화회관 앞,127.1097183,37.50580215,6,0,6,송파구,송파1동
ST-1082,1263. 장지공영차고지,127.1370163,37.48054123,5,0,5,송파구,위례동
ST-1083,1264. 천호역 10번 출구 앞,127.1228027,37.53858185,10,0,10,송파구,풍납1동
ST-1084,1265. 문정동 근린공원,127.1247635,37.48598862,19,15,34,송파구,문정1동
ST-1085,1266. 문정동 글샘 공원,127.1200028,37.47880936,6,4,10,송파구,문정2동
ST-1086,1267. 올림픽공원 남2문 앞,127.1230698,37.51424026,27,3,30,송파구,오륜동
ST-1087,1268. 몽촌토성역 1번출구 옆,127.1141968,37.51728821,7,3,10,송파구,오륜동
ST-1088,1269. 리센츠아파트 ,127.091217,37.51194382,15,3,18,송파구,잠실2동
ST-1089,1271. 송파도서관,127.1353912,37.49998474,10,1,11,송파구,오금동
ST-1092,1274. 영파여고 앞,127.121048,37.53284836,5,6,11,송파구,풍납동
ST-1367,1275. 거여초등학교 옆,127.1393662,37.50458908,10,0,10,송파구,오금동
ST-1408,1277. 성내6교,127.1370926,37.50375748,13,4,17,송파구,거여1동
ST-1409,1278. 송파구청 교차로,127.1068192,37.51579666,51,3,54,송파구,방이2동
ST-1410,1279. 마천금호어울림 1차아파트 건너편,127.1546783,37.49751663,7,0,7,송파구,마천1동
ST-1411,1280. 송파파크데일 2단지입구 앞 주차장,127.1571732,37.49565887,0,1,1,송파구,마천1동
ST-1413,1282. 송파소방서 맞은편(성내4교),127.1414795,37.49987411,11,4,15,송파구,거여1동
ST-1414,1283. 오금공원 사거리,127.131691,37.50541306,7,1,8,송파구,가락2동
ST-1416,1285. 위례별 유치원 뒤,127.1445923,37.4774704,4,0,4,송파구,위례동
ST-1417,1286. 위례중앙푸르지오 1단지 앞,127.1406708,37.47437668,7,0,7,송파구,위례동
ST-1418,1287. 위례아이파크 101동 맞은편,127.1415176,37.47753143,5,2,7,송파구,위례동
ST-1419,1288. 문정중교 사거리,127.1310883,37.48799896,3,0,3,송파구,장지동
ST-1422,1289. 풍납토성 서성벽터B,127.1110916,37.53147125,3,2,5,송파구,성내1동
ST-1579,1290. 위례송파꿈에그린아파트24단지 앞 성벽 다리 밑,127.1375427,37.47458267,7,2,9,송파구,위례동
ST-1580,1291. 서울체육고등학교 앞,127.1318665,37.52193832,20,3,23,송파구,오륜동
ST-1582,1293. 석촌호수 서호 사거리,127.0965576,37.50656128,28,5,33,송파구,잠실3동
ST-1584,1295. 잠실역 8번출구,127.1003037,37.51396179,2,0,2,송파구,잠실6동
ST-1585,1296. 석촌호수교차로 (송파나루근린공원 앞),127.1034317,37.50867844,11,5,16,송파구,잠실3동
ST-1586,1297. 석촌호수교차로(동호 팔각정 앞),127.1041184,37.50920105,56,12,68,송파구,잠실6동
ST-1588,1299. 송파소방서 (방이119안전센터),127.1367111,37.51987839,9,1,10,송파구,오륜동
ST-1589,1300. 오륜사거리,127.1392212,37.50693893,3,0,3,송파구,오금동
ST-825,1302. 한성대입구역6번출구 뒤,127.0063095,37.58876419,4,0,4,성북구,성북동
ST-931,1303. 돈암초교 입구,127.012497,37.59169388,4,0,4,성북구,성북동
ST-826,1304. 만해공원,126.9923096,37.59440231,8,3,11,성북구,성북동
ST-947,1305. 성북구청,127.0164337,37.58932877,12,3,15,성북구,삼선동
ST-842,1306. 한성대입구역2번출구,127.0067062,37.58844757,1,1,2,성북구,삼선동
ST-827,1308. 안암로터리 버스정류장 앞,127.0289764,37.58259201,25,1,26,성북구,안암동
ST-559,1314. 정릉꿈에그린1단지 201동 앞,127.0116882,37.60243988,7,0,7,성북구,정릉2동
ST-560,1315. 고려사대부속중고 정문,127.0032806,37.60776138,0,0,0,성북구,정릉3동
ST-562,1316. 고려사대부속중고 건너편 ,127.0028381,37.60726166,0,3,3,성북구,정릉3동
ST-563,1318. 길음역 3번출구 뒤,127.0247879,37.60308456,3,2,5,성북구,길음1동
ST-564,1319. 종암사거리 분수대,127.0332718,37.6030426,4,1,5,성북구,길음1동
ST-655,1321. 국민은행 종암동지점 앞,127.0366669,37.59328842,1,1,2,성북구,종암동
ST-565,1322. 래미안라센트아파트 103동 앞,127.0392761,37.59806824,7,1,8,성북구,종암동
ST-567,1323. 월곡역 입구 육교 밑,127.0402069,37.60043335,0,0,0,성북구,종암동
ST-571,1325. 상월곡역 4번출구,127.0477371,37.60580826,3,0,3,성북구,월곡2동
ST-572,1326. 상월곡역 1번출구,127.0473175,37.60606766,0,1,1,성북구,월곡2동
ST-574,1327. 상월곡역 3번출구,127.0506821,37.60734177,3,0,3,성북구,월곡2동
ST-910,1328. 월곡역 3번출구,127.0416336,37.6026268,3,0,3,성북구,월곡2동
ST-578,1332. 석계역 5번출구 건너편,127.0660934,37.61355591,5,0,5,성북구,석관동
ST-579,1333. 석관초등학교 앞,127.0597992,37.61052322,22,0,22,성북구,석관동
ST-580,1334. 석관동주민센터 앞,127.0613098,37.61299896,5,1,6,성북구,석관동
ST-1200,1336. 성북3교 위,127.0140076,37.59125137,15,1,16,성북구,삼선동
ST-1201,1337. 돈암성당 옆,127.0171356,37.59038162,11,0,11,성북구,동선동
ST-1202,1338. 용문2교 옆,127.020752,37.5868988,13,2,15,성북구,안암동
ST-1203,1339. 삼성전자서비스 성북센터,127.0335083,37.610569,6,0,6,성북구,월곡1동
ST-1204,1340. 광운초등학교 앞,127.0550003,37.61784363,3,1,4,성북구,장위3동
ST-1206,1342. 성북쉼터 앞,126.9979324,37.59261703,10,3,13,성북구,성북동
ST-1207,1343. 한성대7번출구 앞,127.0073776,37.58924866,0,2,2,성북구,성북동
ST-1208,1344. 아리랑시네센터 앞,127.0137024,37.60028839,0,0,0,성북구,돈암2동
ST-1210,1346. 길음8골어린이공원 옆,127.0202484,37.60897827,0,0,0,성북구,길음1동
ST-1211,1347. 길음래미안아파트817동 상가 앞,127.0214996,37.60710526,1,0,1,성북구,길음1동
ST-1212,1348. 성북제일새마을금고 본점 앞,127.0227585,37.60475159,5,5,10,성북구,길음1동
ST-1213,1349. 월계2교 버스정류장 앞,127.0502014,37.62382889,6,1,7,강북구,번3동
ST-1215,1351. 안암2교 옆,127.0241928,37.5794487,8,1,9,성북구,안암동
ST-1216,1352. e 편한세상 보문아파트 내,127.0170975,37.58388138,0,1,1,성북구,보문동
ST-1217,1353. 금호어울림센터힐 내,127.0235519,37.60083008,12,0,12,성북구,돈암1동
ST-1317,1354. 고려대학교 2번출구,127.0361939,37.5907135,28,1,29,성북구,종암동
ST-1347,1355. 보문2교,127.0189133,37.58869934,7,4,11,성북구,보문동
ST-1383,1357. 북한산보국문역,127.0081329,37.61207199,5,0,5,성북구,정릉4동
ST-1384,1358. 정릉도서관 앞,127.010582,37.60478973,4,1,5,성북구,정릉2동
ST-1385,1359. 장위뉴타운 꿈에 숲 코오롱 하늘채 앞,127.0450974,37.61980057,13,1,14,강북구,번3동
ST-1386,1360. 정릉역,127.013504,37.60309601,10,1,11,성북구,정릉2동
ST-1424,1361. 홍익중고 입구,127.0022354,37.59296799,14,11,25,성북구,성북동
ST-1454,1362. 보문역6번출구 앞,127.0196686,37.58519745,12,1,13,성북구,보문동
ST-1455,1363. 보문4교 인근,127.0219498,37.58375168,11,0,11,성북구,안암동
ST-1456,1364. 성북동 치안센터 앞,127.0040894,37.59017181,3,0,3,성북구,성북동
ST-1457,1365. 선잠단지 앞,126.9990921,37.5933609,8,3,11,성북구,성북동
ST-1458,1366. 일신초등학교 옆,127.0403824,37.59972,7,0,7,성북구,종암동
ST-1459,1367. 길음문화복합미디어센터,127.0226593,37.60404587,5,12,17,성북구,길음1동
ST-1460,1368. 성신여대입구 교차로,127.0201035,37.59148026,4,2,6,성북구,동선동
ST-1634,1370. 복자사랑 피정의 집,126.9952087,37.59453964,6,1,7,성북구,성북동
ST-1636,1372. KEB은행 고대점,127.031601,37.58644485,0,0,0,성북구,종암동
ST-1637,1373. 성북구보건소 건너편,127.0389786,37.60229111,8,0,8,성북구,월곡1동
ST-1723,1375. 생명의 전화 종합복지관 앞 교차로,127.0373764,37.60390854,0,0,0,성북구,월곡1동
ST-1745,1376. 한국과학기술연구원 중문,127.043808,37.59732056,4,0,4,성북구,월곡2동
ST-1746,1377. 한국과학기술연구원 북문,127.0453415,37.60395813,0,0,0,성북구,월곡2동
ST-2221,1379.길음뉴타운푸르지오아파트 3단지,127.0181732,37.60935974,0,0,0,성북구,길음1동
ST-2222,1380.월곡역 5번출구 앞,127.0412369,37.60108566,8,0,8,성북구,월곡2동
ST-2223,1381.석계역 4번출구 뒤,127.0670013,37.61478424,6,1,7,성북구,석관동
ST-2406,1382.래미안월곡아파트 입구,127.0362701,37.60866547,3,0,3,성북구,월곡1동
ST-2225,1384.성신여대입구역 5번출구,127.0162888,37.59282684,16,9,25,성북구,동선동
ST-2226,1385.성신여대입구역 3번출구 앞,127.0162888,37.59236526,16,2,18,성북구,삼선동
ST-2227,1386.동선고가차도 초입,127.0189667,37.59415817,1,2,3,성북구,동선동
ST-2229,1388. 돈암초교입구 버스정류장(한성대입구역 방면),127.0117035,37.59088135,0,3,3,성북구,삼선동
ST-2231,1390.석관래미안아트리치,127.0616226,37.60646057,17,0,17,성북구,석관동
ST-2232,1391.성북청소년센터,127.0561676,37.61701202,1,2,3,성북구,장위3동
ST-2233,1392.돈암삼성풍림아파트,127.0226288,37.5970993,9,0,9,성북구,돈암1동
ST-2234,1393.돈암육교 하단,127.0214081,37.59802628,1,1,2,성북구,돈암1동
ST-2235,1394.길음뉴타운 래미안9단지,127.0197144,37.60241699,1,2,3,성북구,정릉1동
ST-2236,1395.래미안장위포레카운티(102동),127.0518341,37.61817932,24,0,24,성북구,장위3동
ST-2237,1396.래미안장위퍼스트하이(513동),127.0514526,37.61844254,34,1,35,성북구,장위3동
ST-558,1401. 극동늘푸른아파트,127.0763626,37.61473846,4,0,4,중랑구,묵2동
ST-561,1402. 금란주차장 앞,127.1023331,37.60007095,18,7,25,중랑구,망우본동
ST-566,1403. 중화빌딩 앞 (동부시장),127.0765762,37.59424973,7,3,10,중랑구,중화2동
ST-599,1404. 동일로 지하차도,127.0800324,37.59529877,5,1,6,중랑구,중화2동
ST-568,1405. 망우역 1번출구,127.0929489,37.59909821,4,0,4,중랑구,상봉1동
ST-569,1406. 망우청소년수련관,127.1082687,37.60625076,0,2,2,중랑구,망우본동
ST-847,1407. 먹골역 1번출구 뒤,127.0778885,37.61151123,9,0,9,중랑구,묵1동
ST-570,1408. 먹골역 6번출구 앞,127.0774765,37.61072159,9,0,9,중랑구,묵2동
ST-573,1410. 면목 대원칸타빌아파트,127.0901871,37.57778168,9,2,11,중랑구,면목7동
ST-912,1411. 상봉시장앞 교차로 한성빌딩 앞,127.0867386,37.59254074,1,0,1,중랑구,면목본동
ST-577,1413. 봉화산역 5번출구 뒤,127.0903091,37.61756134,7,1,8,중랑구,묵1동
ST-849,1414. 사가정역 2번출구,127.0882416,37.58098984,4,1,5,중랑구,면목3·8동
ST-850,1416. 상봉역 3번출구,127.0859985,37.59521866,4,1,5,중랑구,상봉2동
ST-583,1418. 새솔초등학교,127.1090164,37.61743927,10,2,12,중랑구,신내1동
ST-585,1420. 신내어울공원 앞,127.097702,37.61394501,4,3,7,중랑구,신내1동
ST-586,1421. 신내역 4번출구,127.1033783,37.61246109,1,1,2,중랑구,신내1동
ST-587,1422. 신내우디안아파트 1단지,127.1064606,37.62009811,0,1,1,중랑구,신내동
ST-588,1424. 양원역 2번출구,127.1077423,37.6063118,14,0,14,중랑구,망우본동
ST-589,1425. 용마문화복지센터,127.0959702,37.58745956,6,1,7,중랑구,면목3·8동
ST-590,1426. 면목도시개발아파트 1동 앞,127.0868225,37.57358932,8,3,11,중랑구,면목4동
ST-852,1427. 용마산역 1번출구,127.0869141,37.57429886,3,0,3,중랑구,면목4동
ST-853,1428. 원묵고등학교,127.085968,37.61602402,0,3,3,중랑구,묵1동
ST-854,1429. 장안중학교,127.0800018,37.59995651,14,1,15,중랑구,중화1동
ST-855,1430. 중랑구청,127.092598,37.60615158,21,1,22,중랑구,신내2동
ST-856,1431. 중랑구청 사거리,127.0954514,37.60649872,2,4,6,중랑구,신내1동
ST-857,1433. 중화역 2번출구,127.0795822,37.60207748,7,1,8,중랑구,중화1동
ST-593,1435. 능산삼거리,127.1007919,37.60868073,1,0,1,중랑구,신내1동
ST-594,1436. 동원베네스트 건물 앞,127.101181,37.60810089,8,1,9,중랑구,신내1동
ST-595,1437. 늘푸른공원 앞,127.0799255,37.5834198,0,1,1,중랑구,면목5동
ST-596,1438. 홈플러스 신내점 앞,127.093483,37.61616898,8,1,9,중랑구,신내2동
ST-942,1440. 면목2동 사거리,127.0800705,37.58637238,2,0,2,중랑구,면목5동
ST-584,1441. 신내능말공원,127.11026,37.61670685,1,0,1,중랑구,신내1동
ST-1093,1442. 중랑구 중소기업 창업센터,127.0798187,37.59859085,18,1,19,중랑구,중화2동
ST-1095,1444. 면목4치안센터,127.0805435,37.57402802,4,1,5,중랑구,면목4동
ST-1096,1445. 용마지구대,127.0793991,37.5799408,0,1,1,중랑구,면목5동
ST-1097,1446. 중랑전화국 교차로,127.0803299,37.59130096,4,0,4,중랑구,면목2동
ST-1098,1447. 면목역 3번출구,127.0872803,37.58890152,18,5,23,중랑구,면목본동
ST-1099,1448. 코스트코 상봉점,127.089798,37.59732056,3,0,3,중랑구,상봉2동
ST-1332,1449. 상봉역 1번출구,127.0858383,37.59655762,19,0,19,중랑구,상봉1동
ST-1333,1450. 화랑대역 7번출구,127.0850449,37.61963654,10,1,11,중랑구,묵1동
ST-1334,1451. 중랑세무서,127.07267,37.59275818,0,0,0,중랑구,상봉2동
ST-1335,1452. 겸재교 진입부,127.0750504,37.58565521,10,1,11,중랑구,면목2동
ST-1345,1453. 중랑캠핑숲,127.1092529,37.60460281,3,2,5,중랑구,망우본동
ST-1346,1454. 한국전력공사(동대문 중랑지사),127.0785904,37.6073494,0,0,0,중랑구,묵1동
ST-1375,1455. 상봉역 2번 출구,127.0858994,37.59632874,17,0,17,중랑구,상봉2동
ST-1380,1456. 상아빌딩(우림시장 교차로),127.1003265,37.59511185,1,0,1,중랑구,망우3동
ST-1381,1457. 동원사거리,127.0932388,37.58975983,13,2,15,중랑구,면목본동
ST-1451,1458. 상봉터미널2,127.0930862,37.59733963,4,1,5,중랑구,망우본동
ST-1452,1459. 용마한신아파트사거리,127.0926514,37.58034897,1,3,4,중랑구,면목7동
ST-2282,1461.동양엔파트 앞,127.0750732,37.593853,4,1,5,중랑구,중화2동
ST-2283,1462.동부시장 북문 앞,127.0765228,37.59386826,5,0,5,중랑구,상봉2동
ST-2284,1463.중랑구민회관,127.0850067,37.57407761,6,0,6,중랑구,면목4동
ST-2285,1464.중화역 4번출구,127.0790024,37.60305405,17,1,18,중랑구,중화2동
ST-2286,1465.중랑공영차고지 옆,127.1051483,37.61314774,3,4,7,중랑구,신내1동
ST-2287,1466.두산대림아파트 삼거리,127.0875702,37.61882401,3,1,4,중랑구,묵1동
ST-2288,1467.sk신내 주유소앞(용마산로),127.1011505,37.61362076,3,2,5,중랑구,신내1동
ST-2289,1468.먹골역 7번 출구,127.0773926,37.6114769,2,0,2,중랑구,묵2동
ST-2290,1469.먹골역 4번출구,127.0781326,37.60982132,0,1,1,중랑구,묵1동
ST-2291,1470.중화동 우리은행 앞,127.0785828,37.60520172,8,3,11,중랑구,묵2동
ST-2292,1471.동양쇼핑 정류소 앞,127.0784912,37.61535263,9,0,9,중랑구,묵1동
ST-2293,1472.영성빌딩(PAT),127.0792313,37.60408401,4,0,4,중랑구,중화1동
ST-2294,1473.중랑역 1번 출구(중화문화복지센터),127.0749512,37.59489059,6,1,7,중랑구,중화2동
ST-2295,1474.서울중랑우체국,127.08284,37.59581375,2,0,2,중랑구,상봉1동
ST-2298,1477.면목삼익아파트 앞,127.0796051,37.57598495,5,0,5,중랑구,면목4동
ST-2299,1478.홈플러스 상봉점 앞,127.0922699,37.59832764,14,2,16,중랑구,상봉1동
ST-2300,1479.면목 홈플러스 2 ,127.0820923,37.58105469,2,0,2,중랑구,면목5동
ST-2301,1480. 용마지구대 옆,127.080101,37.58111191,3,3,6,중랑구,면목5동
ST-948,"1501. 미아역 3번,4번 출구 사이",127.0264816,37.62607956,9,0,9,강북구,송천동
ST-643,1503. 강북구청사거리(수유역 8번출구),127.0267258,37.63926315,3,1,4,강북구,수유3동
ST-644,1504. 삼양시장오거리,127.0186234,37.62415695,0,0,0,강북구,삼양동
ST-645,1506. 강북문화예술회관,127.0133591,37.64032745,12,0,12,강북구,인수동
ST-859,1509. 서울북부수도사업소,127.0357513,37.63437653,8,0,8,강북구,번2동
ST-860,1510. 번동주공5단지 관리사무소 앞,127.0355148,37.63371658,3,0,3,강북구,번2동
ST-861,1511. 번동 금호어울림아파트102동앞,127.0360336,37.63112259,2,0,2,강북구,번2동
ST-862,1512. 강북중학교 앞,127.0265656,37.64473724,3,0,3,강북구,수유3동
ST-863,1513. 강북구청 뒷편,127.0251999,37.63967133,6,0,6,강북구,수유3동
ST-646,1514. 강북구청 사거리 버스정류소 앞,127.0283585,37.63880539,5,0,5,강북구,번1동
ST-648,1515. 송천동 주민센터,127.0240479,37.61828613,2,0,2,강북구,송천동
ST-652,1516. 우이초등학교 후문 옆,127.0159073,37.63858795,1,0,1,강북구,인수동
ST-654,1518. 수유2동은행빌딩 앞,127.0161667,37.64308548,5,0,5,강북구,수유2동
ST-651,1519. 장미원시장 건너편,127.0156174,37.64545059,6,1,7,강북구,수유2동
ST-650,1520. 수유중앙시장,127.022789,37.63986206,16,0,16,강북구,수유3동
ST-647,1525. 미아동 복합청사,127.0266953,37.62714005,5,1,6,강북구,미아동
ST-1100,1526. 강북종합시장 앞,127.0246277,37.64173889,1,0,1,강북구,수유3동
ST-1101,1527. 미아역 1번 출구 뒤,127.0260544,37.62733459,12,0,12,강북구,번1동
ST-1102,1528. 삼각산동 주민센터,127.0206986,37.61503601,13,1,14,강북구,삼각산동
ST-1103,1529. 미아동 한국전력공사,127.02491,37.63018036,5,1,6,강북구,미아동
ST-1104,1530. 광산사거리,127.0223465,37.64355087,9,4,13,강북구,수유2동
ST-1105,1531. 미아사거리 1번 출구,127.0302506,37.61395645,15,4,19,강북구,송중동
ST-1106,1532. 번3동 주민센터 교차로,127.0474472,37.62635422,10,0,10,강북구,번3동
ST-1107,"1533. 번동 주공3, 4단지 교차로",127.0409164,37.62991714,3,0,3,강북구,번3동
ST-1109,1535. 효성인텔리안 앞,127.0233765,37.6362915,8,1,9,강북구,수유3동
ST-1110,1536. 번동 두산위브 101동 옆,127.0321732,37.63626099,9,3,12,강북구,번1동
ST-1387,1537. 북한산 우이역,127.0124283,37.66366577,8,0,8,강북구,우이동
ST-1388,1538. 솔밭공원역,127.0131378,37.65615845,4,0,4,강북구,우이동
ST-1389,1539. 4.19민주묘지역,127.0134506,37.64967346,7,1,8,강북구,수유2동
ST-1390,1540. 가오리역,127.0168839,37.64167023,1,0,1,강북구,수유2동
ST-1391,1541. 삼양역,127.0180588,37.62652969,2,0,2,강북구,삼양동
ST-1392,1542. 삼양사거리역,127.0203705,37.62155151,7,0,7,강북구,송천동
ST-1423,1543. 수유1동 주민센터,127.0177383,37.63018799,6,0,6,강북구,수유1동
ST-1665,1546. 송천동우체국,127.0297012,37.61545944,2,2,4,강북구,송천동
ST-1724,1547. 꿈의숲 롯데캐슬,127.0362396,37.6186409,2,4,6,강북구,송중동
ST-1725,1548. 북서울 꿈의숲 서문,127.0378113,37.62268829,7,0,7,강북구,번2동
ST-2123,1550.삼각산아이원아파트(105동 옆),127.0185089,37.61522293,0,0,0,강북구,삼각산동
ST-2124,1551.4.19탑 앞,127.008812,37.64686203,1,0,1,강북구,우이동
ST-2125,1552. 강북구청사거리,127.0272369,37.63920212,5,0,5,강북구,번1동
ST-2126,1553.서울북부고용노동지청,127.0339661,37.63520432,9,1,10,강북구,번2동
ST-2127,1554.번동사거리,127.0345535,37.63539124,4,1,5,강북구,번2동
ST-2129,1557.신창교,127.0393066,37.63238144,14,0,14,강북구,번3동
ST-2130,1558.강북문화정보도서관,127.037323,37.62552643,5,0,5,강북구,번3동
ST-2132,1560. 도봉세무서 앞,127.0285263,37.6198082,3,0,3,강북구,송중동
ST-2133,1564.4.19민주묘지역 1번출구,127.0138474,37.64959717,2,0,2,강북구,수유2동
ST-2134,1565.수유사거리,127.022995,37.63561249,12,0,12,강북구,인수동
ST-2136,1568.4.19민주묘지 입구사거리,127.0145721,37.64793396,2,0,2,강북구,수유2동
ST-2137,1569.수유역2번출구,127.0259018,37.63796997,19,0,19,강북구,번1동
ST-2401,1571.북서울 꿈의 숲 입구,127.0387726,37.62673187,17,0,17,강북구,번3동
ST-2402,1572. 우이동 먹거리마을,127.0118408,37.66446304,6,0,6,강북구,우이동
ST-2403,1573.현대성우아파트 옆,127.02211,37.61666489,2,2,4,강북구,송천동
ST-2405,1574.송중초등학교 옆,127.0304947,37.61669922,6,2,8,강북구,송중동
ST-600,1601. 석계역 문화광장 내 자전거 보관소,127.0646973,37.61495972,4,0,4,노원구,월계1동
ST-913,1602. 광운대역 앞,127.0618973,37.62266159,11,0,11,노원구,월계1동
ST-866,1605. 헬스케어,127.061615,37.63162231,1,0,1,노원구,월계3동
ST-602,1606. 태릉입구역 3번출구 ,127.0749283,37.61917114,2,0,2,노원구,공릉1동
ST-735,1608. 공릉역 1번 출구 앞,127.0727539,37.62661362,6,1,7,노원구,공릉1동
ST-603,1610. 화랑대역 2번출구 앞,127.0836411,37.62036896,6,6,12,노원구,공릉2동
ST-604,1611. 과기대 입구(우),127.0765533,37.62994003,2,1,3,노원구,공릉2동
ST-605,1616. 하계2동 공항버스정류장 옆,127.0683289,37.63510895,8,1,9,노원구,하계1동
ST-606,1617. 하계동 중평어린이공원 앞,127.0632706,37.63714981,9,0,9,노원구,하계2동
ST-736,1619. 중계동 하나프라자빌딩 앞(중1-1),127.0764084,37.64902115,7,0,7,노원구,중계1동
ST-867,1620. 중계동 노원구민체육센터 옆(중1-2),127.070221,37.64820862,3,0,3,노원구,중계1동
ST-914,1625. 상계역(4번출구),127.0729675,37.65999985,2,1,3,노원구,중계4동
ST-915,1627. 수락산역 4번출구,127.0550995,37.67694092,2,0,2,노원구,상계1동
ST-868,1628. 노일초등학교 앞,127.0552521,37.67361832,3,0,3,노원구,상계1동
ST-869,1630. 수연빌딩 앞,127.0555039,37.67625046,1,1,2,노원구,상계1동
ST-608,1634. 당고개공원 대여소,127.0771484,37.66846085,0,0,0,노원구,상계3·4동
ST-609,1635. 상계3.4동 주민센터 대여소,127.0831604,37.67271042,0,0,0,노원구,상계3·4동
ST-610,1636. 상계주공2단지 버스정류장 옆,127.0617676,37.64921188,2,0,2,노원구,상계6·7동
ST-611,1637. KT 전화국 버스정류장 옆,127.0634003,37.65470123,11,2,13,노원구,상계6·7동
ST-612,1639. 희성오피앙,127.055069,37.68031311,1,0,1,노원구,상계1동
ST-971,1640. 한내근린공원 북측,127.0684891,37.62386322,4,1,5,노원구,월계3동
ST-970,1641. 한내근린공원 남측,127.0695114,37.62155533,4,3,7,노원구,월계3동
ST-964,1642. 서울여대 남문,127.0881348,37.62531662,0,0,0,노원구,공릉2동
ST-1111,1643. 태릉입구역 8번출구,127.0752106,37.61736679,7,0,7,노원구,공릉1동
ST-1114,1646. 삼육대 입구,127.1079025,37.63848877,9,0,9,노원구,공릉2동
ST-1118,1650. 중계근린공원내,127.0651016,37.63957977,10,1,11,노원구,중계2·3동
ST-1119,1651. 상계동 우방유쉘아파트 앞,127.0559921,37.67237473,6,2,8,노원구,상계1동
ST-1120,1652. 파르코 앞,127.0555801,37.68000031,1,1,2,노원구,상계1동
ST-1121,1653. 노원역1번출구,127.0636215,37.65620041,7,0,7,노원구,상계2동
ST-1122,1654. 당고개입구 오거리,127.0754471,37.66379166,0,0,0,노원구,상계3·4동
ST-1123,1655. 공릉1단지아파트,127.0701599,37.63111115,5,0,5,노원구,공릉1동
ST-1124,1656. 중앙하이츠 아파트 입구,127.0675049,37.65501785,5,0,5,노원구,상계2동
ST-1125,1657. 노원구청 ,127.0573273,37.65404892,13,0,13,노원구,상계6·7동
ST-1127,1659. 중계동 을지중학교,127.0716019,37.65032959,0,0,0,노원구,중계1동
ST-1128,1660. 서울시립과학관,127.076622,37.64207077,1,0,1,노원구,하계1동
ST-1278,1661. 당현천근린공원,127.0656052,37.64963913,0,1,1,노원구,상계6·7동
ST-1279,1662. 노원역7번출구,127.0592117,37.65421677,12,0,12,노원구,상계6·7동
ST-1280,1663. 동해문화예술관앞,127.0578537,37.61938095,7,2,9,노원구,월계1동
ST-1281,1664. 노해근린공원내,127.0704422,37.64936066,1,0,1,노원구,중계1동
ST-1282,1665. 양지근린공원앞,127.0764237,37.64733505,12,0,12,노원구,중계1동
ST-1283,1666. 노원소방서인근,127.0717773,37.65578079,8,0,8,노원구,상계2동
ST-1284,1667. 중계중학교,127.0743866,37.65449905,1,0,1,노원구,중계4동
ST-1285,1668. 중계역 6번출구,127.0632553,37.64550781,7,0,7,노원구,중계2·3동
ST-1286,1669. 중계역 3번출구,127.0652237,37.64352798,3,0,3,노원구,중계2·3동
ST-1287,1670. 노원경찰서교차로,127.0718384,37.64340973,2,0,2,노원구,하계1동
ST-1288,1671. 인덕대학교,127.0548248,37.62934875,5,2,7,노원구,월계2동
ST-1289,1672. 상계동수락리버시티,127.0534058,37.68859863,15,0,15,노원구,상계1동
ST-1291,1674. 서울북부고용센터앞,127.0580826,37.65354919,4,0,4,노원구,상계6·7동
ST-1348,1675. 월계문화체육센터,127.05513,37.62694168,0,0,0,노원구,월계2동
ST-1349,1677. 육군사관학교  앞,127.0904999,37.62316513,5,3,8,노원구,공릉2동
ST-1394,1678. 성서대학교 밀알관,127.0644455,37.6484375,8,1,9,노원구,상계6·7동
ST-1395,1679. 삼육대 도서관,127.1066666,37.6428299,6,2,8,노원구,공릉2동
ST-1396,1680. 삼육대 제3과학관,127.1083832,37.64265442,3,0,3,노원구,공릉2동
ST-1425,1681. 현대6차 아파트,127.0822601,37.64580154,4,0,4,노원구,중계본동
ST-1426,1682. 중계종합사회복지관 교차로,127.0755463,37.65745544,0,0,0,노원구,중계4동
ST-1473,1683. 노원문화예술회관,127.0808868,37.65045929,1,0,1,노원구,중계본동
ST-1474,1684. 태릉입구역 5번출구,127.0756302,37.61832047,8,0,8,노원구,공릉1동
ST-1475,1685. 불암고등학교 앞 횡단보도,127.0804825,37.64818954,0,0,0,노원구,중계본동
ST-1476,1686. 상계주공10단지 종합상가 앞,127.0580521,37.66114044,0,0,0,노원구,상계10동
ST-1639,1688. 마들역 7번출구,127.0572968,37.66566086,3,0,3,노원구,상계10동
ST-1640,1689. 마들역 3번출구,127.0578919,37.66524887,4,1,5,노원구,상계9동
ST-1641,1690. 도봉운전면허시험장 버스정류장 옆,127.0593109,37.6577301,3,0,3,노원구,상계10동
ST-1642,1691. 노원정보도서관,127.0653305,37.66070938,2,0,2,노원구,상계10동
ST-1672,1692. 온곡초교 교차로,127.0660095,37.66418839,2,0,2,노원구,상계9동
ST-1740,1693. 원자력 병원,127.0821075,37.62818909,6,0,6,노원구,공릉2동
ST-2062,1696.수락리버시티4단지,127.0528336,37.68645096,1,0,1,노원구,상계1동
ST-2063,1697.상계주공2단지 219동,127.0571518,37.65024948,0,0,0,노원구,상계6·7동
ST-613,1702. 녹천역 1번출구 앞,127.0504227,37.64582062,0,0,0,도봉구,창1동
ST-657,1703. 도봉산광역환승센터앞 ,127.0451965,37.68972015,18,3,21,도봉구,도봉1동
ST-614,1705. 도봉구청 정문앞,127.0465164,37.66922379,10,1,11,도봉구,도봉2동
ST-916,1706. 방학동우체국 건너편,127.0426712,37.66566467,2,0,2,도봉구,방학1동
ST-615,1707. 도봉구민회관,127.0385132,37.65446091,6,2,8,도봉구,창5동
ST-658,1708. 도봉보건소사거리,127.0398483,37.65682983,0,0,0,도봉구,창5동
ST-616,1709. 쌍문역4번출구 주변,127.035347,37.65012741,10,0,10,도봉구,쌍문3동
ST-1129,1713. 쌍문동 이안아파트 앞,127.0284882,37.65165329,8,0,8,도봉구,쌍문1동
ST-1130,1714. 도봉문화정보도서관 삼거리,127.0446091,37.64463043,6,0,6,도봉구,창1동
ST-1131,1715. 서울특별시교육청도봉도서관,127.0127869,37.65317917,11,1,12,도봉구,쌍문1동
ST-1132,1716. 창동역 1번출구 건너편,127.0507278,37.65420151,0,0,0,도봉구,창4동
ST-1133,1717. 시립창동운동장 입구,127.0501022,37.65570831,7,0,7,도봉구,창4동
ST-1135,1719. 신도봉사거리 버스정류장,127.0439911,37.67328262,8,0,8,도봉구,도봉1동
ST-1136,1720. 도봉구청 옆(중랑천변),127.0479813,37.66867065,11,2,13,도봉구,방학1동
ST-1137,1721. 창동역 2번출구 ,127.0469971,37.65301514,16,0,16,도봉구,창5동
ST-1292,1722. 창동청소년수련관,127.0500488,37.65779877,12,0,12,도봉구,창4동
ST-1293,1723. 방학동학마을도서관,127.0277176,37.66207886,5,0,5,도봉구,방학3동
ST-1295,1725. 창1동주민센터,127.0433121,37.6475029,1,0,1,도봉구,창1동
ST-1296,1726. 삼익세라믹아파트교차로,127.0352097,37.65858841,0,1,1,도봉구,쌍문2동
ST-1297,1727. 서울도봉초등학교인근,127.0407639,37.67867661,6,1,7,도봉구,도봉1동
ST-1434,1728. 서울북부지방법원,127.046814,37.67771912,9,0,9,도봉구,도봉2동
ST-1461,1729. 도봉한신아파트 버스정류장,127.0457916,37.68400955,4,1,5,도봉구,도봉1동
ST-1462,1730. 도봉산역 교차로 앞,127.0455017,37.68759155,11,0,11,도봉구,도봉1동
ST-1463,1731. 도봉고등학교 맞은편,127.0422134,37.6876297,0,0,0,도봉구,도봉1동
ST-1464,1732. 방학역사거리,127.0429993,37.66759872,6,2,8,도봉구,방학1동
ST-1465,1733. 방학사거리 (봄마당 앞),127.0419388,37.66297913,2,1,3,도봉구,방학1동
ST-1466,1734. 쌍문현대1차아파트 108동 앞,127.0326691,37.65814972,4,1,5,도봉구,쌍문4동
ST-1467,"1735. 도봉역 1,2번 출구사이 건너편",127.0449829,37.67911911,10,1,11,도봉구,도봉1동
ST-1468,1736. 버스정류장 앞,127.0370636,37.65224075,4,0,4,도봉구,창5동
ST-1469,1737. 신창시장,127.0388336,37.63970184,15,1,16,도봉구,창2동
ST-1470,1738. 창동주공17단지 상가앞,127.052742,37.6463089,3,0,3,도봉구,창4동
ST-1638,1741. 제일강산수산입구,127.0329819,37.64519882,11,3,14,도봉구,창2동
ST-1726,1742. 북한산 코오롱 하늘채,127.0230179,37.64889145,3,1,4,도봉구,쌍문1동
ST-2088,1743.창동19단지아파트 관리사무소앞,127.0521927,37.65039062,1,0,1,도봉구,창4동
ST-2089,1744.도봉소방서 옆,127.0430298,37.66480255,14,0,14,도봉구,방학1동
ST-2091,1746. 방학남부역 버스정류장,127.0433655,37.66659546,1,1,2,도봉구,방학1동
ST-2093,1748. 방학역 1번출구,127.0437622,37.66898346,3,0,3,도봉구,방학1동
ST-2094,1749. ESA아파트 상가 앞,127.04599,37.66627121,2,0,2,도봉구,방학1동
ST-2095,1750. 창포원 남쪽 입구,127.0488968,37.68826675,9,0,9,도봉구,도봉2동
ST-2096,1751. 창원초등학교 교차로,127.0417023,37.6521225,4,0,4,도봉구,창5동
ST-2097,1752. 창동 주공 4단지 입구 옆,127.0485764,37.64548111,2,0,2,도봉구,창1동
ST-2099,1754. 창동시장입구 사거리,127.033432,37.64689636,11,0,11,도봉구,쌍문3동
ST-2101,1756.서울북부광역등기국,127.0447083,37.6514473,6,0,6,도봉구,창5동
ST-2102,1757.솔밭공원역 1번출구 앞,127.013382,37.65568542,7,1,8,도봉구,쌍문1동
ST-2103,1758.솔밭공원역 1번출구 주변,127.0137558,37.65727997,6,0,6,강북구,쌍문1동
ST-2104,1759.서울북부지방법원 앞,127.0486374,37.67721939,1,0,1,도봉구,도봉2동
ST-2106,1761.방학중학교 앞,127.0310898,37.66562271,2,0,2,도봉구,방학2동
ST-2107,1762.북한산 한신휴플러스APT앞,127.0424194,37.65533829,4,0,4,도봉구,창5동
ST-2110,1765.쌍문역 1번출구 주변,127.035614,37.64966965,4,0,4,도봉구,창1동
ST-2112,1767.방학초등학교 앞,127.0332794,37.66250992,6,1,7,도봉구,방학3동
ST-2113,1768.신동아타워 버스정류소,127.0287552,37.66205215,3,0,3,도봉구,방학3동
ST-2115,1770.도봉한신아파트 주변,127.0500412,37.68473816,1,1,2,도봉구,도봉2동
ST-2116,1771.성원APT버스정류소,127.0300903,37.65796661,2,0,2,도봉구,쌍문4동
ST-2117,1772.시립도봉노인복지관 버스정류소,127.035759,37.65805054,3,0,3,도봉구,쌍문2동
ST-2119,1774.정의여중고 버스정류소,127.034729,37.65134811,4,0,4,도봉구,쌍문2동
ST-2120,1775.신원리베르텔 앞,127.0455475,37.65128708,8,4,12,도봉구,창5동
ST-619,1804. 독산역 2번출구 자전거주차장,126.8887177,37.46652985,6,0,6,금천구,가산동
ST-620,1805. 서울디지털운동장 앞,126.8777695,37.48228836,3,1,4,금천구,가산동
ST-621,1806. 에이스하이엔드타워9차 앞,126.8786392,37.48621368,24,3,27,금천구,가산동
ST-622,1808. 에이스하이엔드타워8차 앞,126.8849411,37.47320938,31,2,33,금천구,가산동
ST-623,1809. LG전자 별관동(호서대 벤처타워 맞은편),126.8851547,37.47077942,10,1,11,금천구,가산동
ST-624,1812. 갑을그레이트밸리 앞,126.8872986,37.47903061,17,3,20,금천구,가산동
ST-625,1814. 두산위브아파트 옆 상가건물 앞,126.8941269,37.47422028,2,0,2,금천구,가산동
ST-626,1816. 금천폭포공원 앞,126.9038315,37.44686127,6,1,7,금천구,시흥3동
ST-642,1819. 금천구청 앞 자전거거치대,126.8959274,37.45647812,0,0,0,금천구,시흥1동
ST-628,1820. 신한은행 시흥대로금융센터지점,126.9033585,37.4433403,16,1,17,금천구,시흥3동
ST-629,1821. 홈플러스 시흥점 맞은편 다비치안경 앞,126.9021149,37.45145798,11,1,12,금천구,시흥1동
ST-630,1822. 서울 시흥동우체국 앞,126.9009094,37.45299149,6,3,9,금천구,시흥1동
ST-631,1823. 상신정비공업 앞,126.8985901,37.4589119,19,2,21,금천구,독산1동
ST-632,1824. 독산근린공원 입구,126.883728,37.46455002,37,0,37,금천구,독산동
ST-633,1825. 한신아파트 앞 육교 아래,126.8910523,37.45470047,12,2,14,금천구,독산1동
ST-634,1826. 한신코아 앞,126.8883438,37.45684052,20,2,22,금천구,독산1동
ST-660,1827. 독산보도육교 앞 자전거 보관소,126.8930664,37.45672607,50,7,57,금천구,독산1동
ST-635,1828. 한양수자인아파트 앞,126.8988876,37.47531891,11,0,11,금천구,독산3동
ST-636,1829. 홈플러스 금천점 앞,126.8972015,37.4691391,9,3,12,금천구,독산1동
ST-637,1830. 빅마켓 금천점 앞,126.8950729,37.4702301,25,5,30,금천구,독산1동
ST-638,1831. 메이퀸웨딩컨벤션 앞,126.8979569,37.47249985,2,0,2,금천구,독산1동
ST-639,1833. 독산역 1번출구 앞 자전거보관소,126.8902817,37.46654129,11,5,16,금천구,독산1동
ST-640,1834. 월드메르디앙 벤처센터 2차,126.8790436,37.47908401,13,0,13,금천구,가산동
ST-641,1835. STX V타워,126.8844299,37.47706985,7,2,9,금천구,가산동
ST-661,1836. 금천구립 독산도서관,126.9081421,37.46740341,6,0,6,금천구,독산4동
ST-1140,1839. 수출의 다리 아래,126.8861542,37.47743607,11,1,12,금천구,가산동
ST-1141,1840. 솔브레인이엔지 뒤편,126.8884583,37.47555161,7,2,9,금천구,가산동
ST-1142,1841. 가산동 주민센터,126.8918686,37.4769516,3,0,3,금천구,가산동
ST-1143,1842. 한울중학교,126.9068604,37.46257401,13,2,15,금천구,시흥4동
ST-1144,1843. 독산고등학교,126.9111328,37.47709656,3,0,3,금천구,독산3동
ST-1146,1845. 롯데캐슬골드파크1차 서문,126.892189,37.460289,6,0,6,금천구,독산1동
ST-1147,1846. 롯데캐슬골드파크1차 동문,126.8960419,37.46017075,14,1,15,금천구,독산1동
ST-1148,1847. 독산주공 14단지 버스정류소,126.8871689,37.46093369,4,1,5,금천구,독산1동
ST-1149,1848. 벽산 디지털밸리 5차,126.8853912,37.4762764,38,1,39,금천구,가산동
ST-1276,1849. 대륭포스트타워5차,126.88694,37.48135376,6,2,8,금천구,가산동
ST-1277,1850. 코오롱테크노밸리,126.8863678,37.48015976,8,2,10,금천구,가산동
ST-1403,1851. 가산디지털단지 7번출구,126.881485,37.48123169,22,0,22,금천구,가산동
ST-1534,1853. 서울디자인직업전문학교 앞,126.8958664,37.47248077,0,2,2,금천구,독산1동
ST-1535,1854. 가산아네스트 오피스텔 앞,126.8974075,37.47817993,10,1,11,금천구,독산1동
ST-1536,1855. 성지아파트 옆 도로변,126.8976212,37.45132065,5,0,5,금천구,시흥1동
ST-1537,1856. 모두의학교,126.9073715,37.47840881,11,0,11,금천구,독산3동
ST-1538,1857. 주공14단지,126.8870926,37.46055984,2,2,4,금천구,독산1동
ST-1648,1858. 500번·507번 버스 종점 앞,126.9026871,37.43727112,20,0,20,금천구,시흥3동
ST-1734,1859. 대륭테크노타운 18차,126.8868408,37.4679985,38,2,40,금천구,가산동
ST-1932,1861.IBK기업은행 석수역 지점 앞,126.9032974,37.4369812,13,1,14,금천구,시흥3동
ST-1933,1862.스타즈호텔독산 빌딩 앞,126.897583,37.46134567,17,3,20,금천구,독산1동
ST-1934,1863.위너스 스포츠클럽 골프연습장옆,126.8986054,37.46053696,2,0,2,금천구,독산2동
ST-1935,1864.산호시티빌 옆,126.8995514,37.45652008,16,1,17,금천구,시흥1동
ST-1936,1865.금천구청앞(M빌딩),126.8964539,37.45633316,15,0,15,금천구,시흥1동
ST-1937,1866.서울안천초등학교 옆,126.8894272,37.45777893,4,6,10,금천구,독산1동
ST-1938,1867.대륭포스트타워6차 앞,126.8838043,37.48088837,42,4,46,금천구,가산동
ST-1939,1868.우리은행 시흥남자동화점 앞,126.9028854,37.44785309,8,0,8,금천구,시흥1동
ST-1940,1869.롯데캐슬골드파크3차 301동 앞,126.8967133,37.45901871,5,3,8,금천구,독산1동
ST-1941,1870.독산3동주민센터 앞,126.9033585,37.47507095,11,2,13,금천구,독산3동
ST-662,1901. 신도림동주민센터 앞,126.8797302,37.50733185,5,0,5,구로구,신도림동
ST-663,1904. 도림천역 1번 출구 앞,126.8828735,37.51424026,1,0,1,구로구,신도림동
ST-664,1906. 신도림역 1번 출구 앞,126.8900986,37.50971985,34,2,36,구로구,신도림동
ST-665,1907. 구일우성(아) 육교 밑,126.8762589,37.48963165,3,0,3,구로구,구로1동
ST-666,1908. 해원리바파크 육교 밑,126.8721619,37.49528503,8,1,9,구로구,구로1동
ST-667,1910. 낙원교회 맞은편,126.8843765,37.49750519,0,0,0,구로구,구로2동
ST-668,1911. 구로디지털단지역 앞,126.9013214,37.48493958,23,2,25,구로구,시흥대로
ST-669,1912. 한신휴아파트 앞,126.8906632,37.48880005,3,0,3,구로구,구로4동
ST-670,1913. 구로리공원,126.8921509,37.49103165,1,0,1,구로구,구로4동
ST-918,1914. 대림역4번출구,126.8944473,37.49440384,3,3,6,구로구,구로4동
ST-671,1916. 구로중학교앞,126.8899841,37.49414062,3,3,6,구로구,구로4동
ST-673,1920. 서울미래초등학교 사거리,126.888298,37.50437927,0,1,1,구로구,구로5동
ST-674,1924. 삼부르네상스파크빌,126.8950958,37.47874069,12,1,13,구로구,가리봉동
ST-919,1925. 동양미래대학교 정문 옆,126.8676987,37.49988937,1,0,1,구로구,고척1동
ST-675,1928. 고척스카이돔구장 광장,126.8684006,37.49946976,1,0,1,구로구,고척1동
ST-676,1929. 고척근린공원 고척도서관 앞,126.8519592,37.5038147,14,0,14,구로구,고척2동
ST-677,1930. 개봉지구대 개봉치안센터,126.8537293,37.49768448,3,0,3,구로구,개봉1동
ST-920,1931. 개봉역2번출구 A,126.8582535,37.49499512,11,1,12,구로구,개봉1동
ST-678,1933. 개봉푸르지오아파트 상가,126.8472824,37.50170517,6,4,10,구로구,개봉1동
ST-870,1936. 개봉역 1번 출구 자전거보관서쪽,126.8592148,37.49428177,15,0,15,구로구,개봉2동
ST-679,1937. 한진아파트 입구,126.8520126,37.4860611,9,0,9,구로구,개봉3동
ST-871,1941. 오류동역 2번출구,126.8437042,37.49367142,4,3,7,구로구,오류2동
ST-872,1943. 온수역 북측,126.8245239,37.49279022,2,2,4,구로구,수궁동
ST-873,1946. 구로역 광장,126.8803864,37.50311661,19,1,20,구로구,구로2동
ST-874,1951. 천왕이펜하우스 4단지 후문,126.8389587,37.48070526,6,2,8,구로구,오류2동
ST-875,1952. 천왕연지타운2단지 앞,126.845726,37.48210526,9,1,10,구로구,오류2동
ST-876,1953. 천왕역 4번출구 뒤,126.8392105,37.48638535,17,0,17,구로구,오류2동
ST-936,1955. 디지털입구 교차로,126.9010391,37.48288345,6,1,7,구로구,시흥대로
ST-1218,1956. 동아1차APT105동 버스정류장(신도림중학교 방면),126.8820496,37.51000977,0,0,0,구로구,신도림동
ST-1219,1957. 구일고등학교 정문 ,126.8743286,37.49340057,5,1,6,구로구,구로1동
ST-1220,1958. 강서수도사업소민원센터,126.8901215,37.49578094,0,3,3,구로구,구로4동
ST-1221,1959. 구로구의회 앞,126.8895874,37.49645615,13,2,15,구로구,구로5동
ST-1222,1960. 구로거리공원 동측(신도림역 방면),126.8894806,37.50284958,0,3,3,구로구,구로5동
ST-1223,1961. 신도림테크노근린공원,126.891304,37.50819397,61,6,67,구로구,구로5동
ST-1224,1962. 가리봉동주민센터,126.8927994,37.48160172,10,1,11,구로구,구로디지털단지
ST-1226,1964. 원메디타운 앞,126.864502,37.49789047,1,0,1,구로구,고척1동
ST-1227,1965. 삼환로즈빌아파트 105동 옆,126.8591232,37.49724197,15,0,15,구로구,고척1동
ST-1228,1966. 한마을아파트 정문상가,126.8630981,37.49649811,7,1,8,구로구,고척1동
ST-1229,1967. 참새공원(백곡경노당),126.8443375,37.5051384,2,1,3,구로구,개봉1동
ST-1230,1968. 동인오피스텔 건너편 소공원,126.8475037,37.49848175,17,0,17,구로구,개봉1동
ST-1231,1969. 궁동생태공원,126.8289642,37.50190353,0,0,0,구로구,수궁동
ST-1233,1971. 오정초교 앞 보도육교,126.8263931,37.49072266,10,0,10,구로구,수궁동
ST-1235,1973. 오리로와 서해안도로 교차로 앞,126.8364945,37.48859787,1,1,2,구로구,오류2동
ST-1236,1974. 신도림2차e편한세상아파트 203동 앞,126.8825378,37.50518036,5,5,10,구로구,신도림동
ST-1237,1975. 대림역 1번 출입구 밑,126.8947525,37.49256516,5,1,6,구로구,구로4동
ST-1238,1976. 남구로역 5번 출입구 앞,126.8867035,37.48567963,14,0,14,구로구,구로4동
ST-1239,1977. 천왕역 1번 출입구 앞,126.8388214,37.48620987,8,2,10,구로구,오류2동
ST-1241,1979. 구로1동우체국 앞,126.8737717,37.4920311,6,2,8,구로구,구로1동
ST-1243,1981. 천왕이펜하우스5단지 앞,126.8426971,37.47943115,9,0,9,구로구,오류2동
ST-1273,1983. 구로동롯데아파트,126.8838806,37.50254822,3,1,4,구로구,구로5동
ST-1274,1984. 구로구청,126.8884735,37.49526596,18,1,19,구로구,구로2동
ST-1275,1985. 구로도서관,126.8919907,37.49851608,24,2,26,구로구,구로5동
ST-1521,1986. 태평양물산빌딩,126.8951874,37.48485947,70,1,71,구로구,구로디지털단지
ST-1522,1987. 개봉아이파크아파트 앞,126.8609314,37.49034119,4,1,5,구로구,개봉2동
ST-1523,1988. 고척LIGA아파트 앞,126.8607864,37.50605011,9,1,10,구로구,고척1동
ST-1526,1991. 오류동역 맞은편,126.8449631,37.49676132,8,0,8,구로구,오류1동
ST-1527,1992. 구로구배드민턴실내체육관 앞,126.8324204,37.4917984,16,1,17,구로구,오류2동
ST-1528,1993. 금강수목원아파트 앞,126.834198,37.48937988,7,0,7,구로구,오류2동
ST-1529,1994. 삼성전자 물류센터 앞,126.8717804,37.49699783,6,0,6,구로구,구로1동
ST-1531,1996. 구일역 1번 출입구 앞,126.8710098,37.49539948,0,0,0,구로구,구로1동
ST-1696,1998. 고척교 교차로,126.871521,37.49856949,9,0,9,구로구,구로2동
ST-1732,1999. 수궁동 성당 주변,126.830658,37.49525833,11,0,11,구로구,수궁동
ST-1733,2000. 신도림4차 e편한세상 아파트 1109동 앞,126.8868332,37.5123291,11,0,11,구로구,신도림동
ST-683,2002. 노들역 1번출구,126.9524689,37.51284409,0,0,0,동작구,노량진1동
ST-877,2003. 사육신공원앞,126.9480591,37.51335907,1,0,1,동작구,노량진1동
ST-685,2007. 유한양행앞,126.9342423,37.51293945,20,1,21,동작구,대방동
ST-686,2008. 노량진근린공원 대방공원,126.9280701,37.5093689,16,3,19,동작구,대방동
ST-726,2009. 보라매역 8번출구,126.9210815,37.50007629,3,0,3,동작구,대방동
ST-727,2012. 대림사거리(동작상떼빌아파트),126.9062271,37.48836136,13,0,13,동작구,신대방1동
ST-687,2013. 장승배기역 5번출구,126.9393616,37.50585175,2,0,2,동작구,노량진2동
ST-728,2015. 신대방삼거리역 6번출구쪽,126.9295654,37.49985504,25,2,27,동작구,대방동
ST-690,2020. 장승배기역2번출구뒷편쪽,126.9389877,37.50449753,2,0,2,동작구,상도2동
ST-691,2024. 상도역 1번출구,126.948204,37.50217819,2,3,5,동작구,상도1동
ST-692,2025. 흑석역 1번출구,126.9636154,37.50938034,16,4,20,동작구,흑석동
ST-932,2026. 흑석역 4번출구,126.9634934,37.50858688,16,5,21,동작구,흑석동
ST-693,2027. 중앙대학교 정문 1,126.9591522,37.50704193,13,5,18,동작구,흑석동
ST-923,2032. 이수역 11번출구쪽,126.9816208,37.48550797,20,10,30,동작구,사당2동
ST-729,2033. 사당동 아르테스 웨딩앞,126.9815826,37.48149109,7,0,7,동작구,사당1동
ST-924,2034. 사당역 7번출구쪽,126.9805756,37.47689056,2,2,4,동작구,사당1동
ST-694,2036. 정금마을 마을버스정류장,126.9823914,37.4947052,20,1,21,동작구,사당2동
ST-695,2037. 동작역 5번출구 동작주차공원,126.97715,37.50318909,46,10,56,동작구,사당2동
ST-696,2038. 동작역 7번출구,126.9760895,37.50318146,2,0,2,동작구,사당2동
ST-697,2040. 비계 버스정류소,126.9690781,37.5063591,6,1,7,동작구,흑석동
ST-731,2041. 사당중학교 버스정류소,126.9680481,37.48683548,1,0,1,동작구,사당3동
ST-732,2048. 삼일초등학교 인근,126.9735642,37.48907852,0,0,0,동작구,사당3동
ST-699,2050. 노량진역 5번출구,126.9399719,37.51324844,35,0,35,동작구,노량진1동
ST-700,2054. 삼익아파트,126.9448471,37.51054764,1,0,1,동작구,노량진1동
ST-733,2056. 동작구민 체육센터,126.9165268,37.49449921,13,0,13,동작구,신대방2동
ST-701,2057. 상도 아이파크 아파트,126.9417496,37.5008812,0,0,0,동작구,상도2동
ST-1150,2058. 동작경찰서,126.9435272,37.5135231,16,0,16,동작구,노량진1동
ST-1151,2059. 보라매공원 정문,126.9177933,37.49707794,15,1,16,동작구,신대방2동
ST-1152,2060. 남성역3번출구 뒤,126.97155,37.48463058,4,3,7,동작구,사당4동
ST-1153,2061. 한강 현대아파트 건너편,126.9692307,37.50592804,5,1,6,동작구,흑석동
ST-1154,2062. 사당새마을금고,126.9678421,37.48665237,2,0,2,동작구,사당3동
ST-1355,2064. 흑석한강푸르지오 106동앞,126.9661789,37.50535583,0,3,3,동작구,흑석동
ST-1356,2065. 서울시여성가족재단,126.9270859,37.51198959,4,0,4,동작구,대방동
ST-1542,2066. 양문교회 앞,126.9071121,37.48939896,6,1,7,동작구,신대방1동
ST-1543,2067. 보라매역?동작세무서 버스정류장(강남중학교방면),126.9198685,37.49766922,8,2,10,동작구,신대방2동
ST-1544,2068. 총신대 앞(육교),126.9664764,37.48815918,5,1,6,동작구,사당3동
ST-1667,2069. 숭실대 입구역3번 출구 앞,126.953682,37.4966011,6,1,7,동작구,상도1동
ST-1545,2070. 노량진역 2번 출구 앞,126.9430695,37.51391983,11,0,11,동작구,노량진1동
ST-1742,2071. 대림아파트 후문 상가 옆,126.9719086,37.48886871,20,1,21,동작구,사당3동
ST-2350,2077.노들역 3번출구,126.9541626,37.51193619,9,0,9,동작구,노량진1동
ST-2351,2078.흑석 아크로리버하임(103동),126.9616318,37.51083755,4,0,4,동작구,흑석동
ST-2352,2079.중앙대학교 중앙광장,126.9577789,37.50667191,0,4,4,동작구,흑석동
ST-2353,2080. 대방지하보도(대방동경남아너스빌아파트),126.9254379,37.51213455,3,1,4,동작구,대방동
ST-2355,2082.7호선 이수역7번출구,126.9817963,37.4846077,2,0,2,동작구,사당1동
ST-2356,2083.흑석롯데캐슬에듀포레(107동),126.9607315,37.50470352,0,0,0,동작구,흑석동
ST-2357,2084.e편한세상 상도노빌리티 앞,126.946785,37.50456238,3,0,3,동작구,상도2동
ST-2358,2085.강남중학교 앞,126.9215775,37.50274277,7,1,8,동작구,대방동
ST-2359,2086.삼일수영장 앞,126.9743576,37.48712158,15,0,15,동작구,사당3동
ST-2361,2088.상도중앙하이츠빌 입구,126.9497299,37.50024796,7,0,7,동작구,상도1동
ST-2362,2089.사당역10번출구(금강빌딩),126.9815064,37.4791069,10,0,10,동작구,사당1동
ST-2363,2090.기아자동차 사당점 앞,126.9779205,37.48377991,11,1,12,동작구,사당1동
ST-2364,2091. 이수역9번출구,126.9805908,37.48470306,10,5,15,동작구,사당1동
ST-2365,2092.흑석한강푸르지오(110동),126.9647141,37.50311279,7,1,8,동작구,흑석동
ST-2366,2093.상도SH빌아파트 입구,126.9545975,37.50321198,14,1,15,동작구,상도1동
ST-2367,2094.숭실대학교(중문) ,126.9563751,37.49550629,7,3,10,동작구,상도1동
ST-2368,2095.경문고등학교 앞,126.9824066,37.49150085,13,0,13,동작구,사당2동
ST-2369,2096.서울특별시 동작관악교육지원청,126.9406509,37.50251389,0,0,0,동작구,상도2동
ST-702,2102. 봉림교 교통섬,126.9268875,37.48408508,26,0,26,관악구,신림동
ST-703,2103. 신림동 우방아파트,126.9192734,37.4891777,1,0,1,관악구,신사동
ST-712,2104. 사당역 5번출구,126.9813309,37.47608948,8,3,11,관악구,남현동
ST-704,2105. 미성동 신림체육센터,126.9146042,37.48025131,5,0,5,관악구,미성동
ST-705,2106. 세이브마트,126.9184036,37.47372818,0,0,0,관악구,난곡동
ST-713,2107. 도림천 신화교,126.9364548,37.4754715,5,3,8,관악구,서원동
ST-714,2108. 은천치안센터,126.9431992,37.48334122,5,11,16,관악구,은천동
ST-882,2109. 은천로입구 가로공원,126.9358292,37.48622513,8,4,12,관악구,은천동
ST-950,2110. 조원동 미성아파트,126.9020309,37.48319244,13,0,13,관악구,조원동
ST-965,2111. 서울대입구역 1번출구,126.9533157,37.48086929,6,2,8,관악구,낙성대동
ST-715,2112. 서울대입구역 마에스트로,126.9506455,37.4813385,2,0,2,관악구,청룡동
ST-883,2115. 관악구시설관리공단,126.9028397,37.47991562,19,3,22,관악구,조원동
ST-717,2116. 에이스에이존빌딩,126.9508286,37.48170471,5,0,5,관악구,중앙동
ST-884,2119. 중앙동 동진빌딩,126.9546967,37.48425674,11,0,11,관악구,중앙동
ST-719,2122. 낙성대로 입구,126.960495,37.47805786,0,0,0,관악구,낙성대동
ST-707,2127. 난곡종점,126.9194794,37.46488571,9,0,9,관악구,난향동
ST-720,2128. 관악구청교차로,126.9525833,37.47916412,0,0,0,관악구,낙성대동
ST-721,2129. 낙성대 과학전시관,126.9581451,37.46905518,5,2,7,관악구,낙성대동
ST-722,2130. 영어마을 관악캠프,126.9584274,37.47198868,10,0,10,관악구,낙성대동
ST-723,2137. KT&G 관악지점,126.9365311,37.48490143,0,1,1,관악구,은천동
ST-951,2139. 서울신성초등학교,126.9370194,37.4711647,2,0,2,관악구,서림동
ST-724,2140. 신림1교 교차로,126.9318619,37.47842789,26,4,30,관악구,서원동
ST-885,2141. 미림여고입구 교차로,126.9334106,37.47229385,0,0,0,관악구,서림동
ST-886,2143. 서울산업정보학교,126.9421997,37.4706955,0,0,0,관악구,대학동
ST-709,2144. 난우길입구,126.9167557,37.47777557,3,0,3,관악구,미성동
ST-725,2145. 은천초등학교 육교,126.9429245,37.48635864,1,0,1,관악구,은천동
ST-887,2148. 낙성대역 3번출구 뒤,126.9633942,37.47702789,0,0,0,관악구,인헌동
ST-952,2156. 신림푸르지오아파트,126.9093247,37.48072052,7,0,7,금천구,독산3동
ST-1156,2159. 인헌초교,126.9592285,37.47509003,4,1,5,관악구,낙성대동
ST-1259,2164. 관악우체국,126.9328766,37.48476791,9,4,13,관악구,신림동
ST-1260,2165. JK장평타워,126.9653626,37.47648239,0,0,0,관악구,행운동
ST-1262,2167. 낙성대역 1번출구,126.9649582,37.47629547,0,0,0,관악구,인헌동
ST-1264,2169. 봉천역 2번출구,126.942131,37.48218918,3,0,3,관악구,청룡동
ST-1265,2170. 조원동 강남힐병원,126.9120331,37.48152924,0,0,0,관악구,조원동
ST-1337,2171. 서울대입구역 5번출구,126.9520035,37.48154831,13,1,14,관악구,중앙동
ST-1267,2172. 나들목공원,126.9445114,37.46940613,8,3,11,관악구,대학동
ST-1268,2173. 당곡사거리,126.9274674,37.48974991,9,0,9,관악구,보라매동
ST-1269,2174. 삼성디지털프라자관악점,126.9284821,37.48856354,0,0,0,관악구,신림동
ST-1270,2175. 신림동걷고싶은문화의거리입구,126.9287033,37.48730087,7,1,8,관악구,신림동
ST-1357,2176. 보라매공원 보도육교,126.9163818,37.48899078,11,0,11,관악구,신사동
ST-1546,2177. 신대방역 2번 출구,126.9130173,37.48712921,25,3,28,동작구,조원동
ST-1547,2178. 서울대학교 정문,126.9493256,37.46709442,18,1,19,관악구,대학동
ST-1548,2179. 양녕로 입구,126.9461594,37.48218918,10,0,10,관악구,은천동
ST-1678,2183. 동방1교,126.9339218,37.47182846,2,1,3,관악구,서림동
ST-1702,2184. 구암초등학교 버스정류장,126.9459229,37.48949051,1,1,2,관악구,은천동
ST-1757,2185. 대학동 고시촌,126.938652,37.47046661,6,0,6,관악구,대학동
ST-2370,2186. 낙성대입구삼거리,126.95961,37.4788208,2,0,2,관악구,행운동
ST-2371,2187. 현대시장사거리,126.9475174,37.4867363,0,0,0,관악구,중앙동
ST-2373,2189. 봉천역 4번출구,126.9414063,37.48275375,8,2,10,관악구,은천동
ST-2374,2190.도원맨션,126.9391556,37.48368835,7,8,15,관악구,은천동
ST-2375,2191.대학동주민센터 ,126.9364853,37.47068787,1,0,1,관악구,대학동
ST-2379,2195.은천교회,126.9345093,37.48464584,9,0,9,관악구,청룡동
ST-2380,2196. 봉천역 3번출구,126.9390259,37.4833107,3,3,6,관악구,청룡동
ST-2382,2198.사랑의병원,126.9569321,37.47946548,8,3,11,관악구,낙성대동
ST-2383,2199.신봉천주유소 A,126.9586945,37.47877121,0,0,0,관악구,낙성대동
ST-741,2201. 본마을 정류소 앞,127.0514832,37.4532814,6,1,7,서초구,내곡동
ST-742,2202.청계산입구역 1번출구,127.0543747,37.44893646,17,0,17,서초구,내곡동
ST-925,2203. 청계산입구역 2번출구,127.0550156,37.44765854,6,0,6,서초구,양재2동
ST-743,2205. 내곡3단지 어린이공원 앞,127.0593796,37.45375061,1,0,1,서초구,내곡동
ST-744,2206. 언남초등학교 앞,127.0621033,37.45435715,2,2,4,서초구,내곡동
ST-926,2207. 내곡파출소 뒤 정자,127.0649262,37.45440674,0,1,1,서초구,내곡동
ST-745,2210. 반포1동 주민센터 앞,127.0131073,37.50509644,14,0,14,서초구,반포동
ST-927,2211. 서초구립반포도서관 앞,127.0123138,37.50263596,17,1,18,서초구,반포동
ST-746,2212.서초현대4차아파트 201동 맞은편,127.0186157,37.50065231,2,0,2,서초구,서초4동
ST-747,2213. 고속터미널역 5번출구 앞,127.0022583,37.5022316,3,0,3,서초구,반포2동
ST-748,2214. 신반포역 2번출구 앞,126.9974899,37.50411606,3,1,4,서초구,반포2동
ST-928,2215. 반포종합운동장 입구,126.9954758,37.5017128,2,3,5,서초구,반포동
ST-750,"2219. 고속터미널역 8-1번, 8-2번 출구 사이",127.0039444,37.50619888,17,0,17,서초구,반포3동
ST-752,2221. 방일초교 마을버스 정류장,126.9946823,37.48561096,6,9,15,서초구,방배동
ST-753,2222.사당역 12번출구 뒤,126.9820328,37.47806931,9,4,13,서초구,방배동
ST-754,2223. 방배래미안 정문 앞,126.9830093,37.47261047,15,3,18,서초구,방배동
ST-755,2225.백석예술대학교 제3캠퍼스 앞,126.9952469,37.4737587,1,1,2,서초구,방배동
ST-756,2226. 신동아럭스빌아파트 앞,127.0013886,37.47518158,5,2,7,서초구,방배동
ST-757,2227.방배열린문화센터 앞,126.9925232,37.48905182,1,2,3,서초구,방배동
ST-758,2228.뒷벌공원 옆,126.986763,37.48976898,12,5,17,서초구,방배본동
ST-759,2229.로고스교회 맞은 편,126.9849625,37.48701096,5,1,6,서초구,방배동
ST-760,2230.이수역 4번 출구,126.9826279,37.4858284,1,1,2,동작구,사당2동
ST-761,2231. 삼성타운(삼성생명) A동 맞은편,127.0249634,37.49691391,9,9,18,서초구,서초동
ST-762,2233. 서초신동아1차아파트 옆,127.0229569,37.49111176,0,1,1,서초구,서초1동
ST-763,2235.KT 서초지사 앞,127.0027008,37.48215866,4,2,6,서초구,서초동
ST-764,2237.서울남부터미널 대합실 입구,127.0148697,37.48455811,14,0,14,서초구,서초3동
ST-765,2239.교대역 6번출구,127.0137863,37.49421692,4,6,10,서초구,서초동
ST-766,2241.양재전화국 사거리,127.0417023,37.48537827,1,0,1,강남구,도곡동
ST-767,2242.양재역 11번 출구 앞,127.0341797,37.48398972,2,0,2,서초구,양재동
ST-768,2243.서울가정법원,127.0367279,37.48149109,9,0,9,서초구,양재1동
ST-769,2244.교육개발원입구 교차로,127.0389099,37.47785187,16,10,26,서초구,양재1동
ST-770,2245.양재초등학교 맞은편,127.03051,37.47361374,5,10,15,서초구,양재1동
ST-889,2246. 서울시 품질시험소 앞,127.029007,37.46920013,14,6,20,서초구,양재1동
ST-771,2247.섬들근린공원,127.026619,37.46263885,9,3,12,서초구,양재1동
ST-929,2248. 서초리슈빌S 글로벌 앞,127.0247421,37.45995331,0,3,3,서초구,양재1동
ST-880,2249. 우솔초등학교 맞은편,127.0193481,37.45623398,8,0,8,서초구,양재1동
ST-881,2250. 서초유치원 맞은편,127.0162888,37.4557991,3,0,3,서초구,양재1동
ST-781,2251. 더케이호텔 입구(양재2) ,127.0344772,37.46750641,2,0,2,서초구,양재동
ST-890,2252. 잔디마을 마을버스 정류장,127.0360413,37.46332169,0,0,0,서초구,양재동
ST-772,2255.시민의숲역 1번출구 옆,127.03862,37.47016525,10,4,14,서초구,양재2동
ST-773,2256.양재동 꽃시장 입구,127.0403595,37.46768951,0,1,1,서초구,양재2동
ST-774,2257. 청계산 입구 삼거리,127.0461121,37.46268845,2,6,8,서초구,내곡동
ST-775,2258.구룡사 삼거리,127.0505905,37.47153854,6,2,8,서초구,양재2동
ST-780,2259. 잠원역 3번-4번 출구사이 ,127.0111771,37.51298904,2,10,12,서초구,잠원동
ST-776,2262. 한신16차아파트 119동 앞,127.0092087,37.5161972,3,0,3,서초구,잠원동
ST-879,2263. 바우뫼문화복지회관,127.0268402,37.47192764,1,1,2,서초구,양재1동
ST-935,2264. 이수역 1번출구,126.9827194,37.48897171,6,1,7,서초구,방배동
ST-949,2265. 이수고가차도 남단,126.9830627,37.49474335,17,5,22,서초구,방배동
ST-1158,2266. 서초역 3번출구,127.0081635,37.49053955,1,3,4,서초구,서초동
ST-1160,2268. 서초4동주민센터 ,127.0222702,37.50231934,5,2,7,서초구,서초동
ST-1161,2269. 주홍교 하부,127.0160523,37.51034927,10,0,10,서초구,반포1동
ST-1162,2270. 서초포레스타 7단지,127.0577393,37.44896698,7,6,13,서초구,내곡동
ST-1163,2271. 내방역 8번출구 앞,126.9941177,37.48802185,2,4,6,서초구,방배동
ST-1164,2272. 교대입구 교차로,127.010582,37.4873085,20,0,20,서초구,서초3동
ST-1165,2273. 일동제약 사거리,127.038269,37.47782898,11,3,14,서초구,양재1동
ST-1166,2274. 양재시민의숲역 3번출구,127.0396118,37.46965027,6,0,6,서초구,양재2동
ST-1167,2275. 염곡치안센터 건너편,127.0490723,37.46149445,4,0,4,서초구,내곡동
ST-1168,2276. 영동1교 (양재천근린공원),127.0389023,37.47438812,1,3,4,서초구,양재동
ST-1169,2277. 길마중4교 하부,127.0156021,37.51483917,5,3,8,서초구,잠원동
ST-1305,2279. 교대역 5번출구뒤,127.014183,37.49361801,1,8,9,서초구,서초1동
ST-1306,2280. 서울서초고용센터앞,127.0109711,37.48416138,4,0,4,서초구,서초동
ST-1307,2281. 연세사랑병원신관앞,126.9862824,37.47597885,1,1,2,서초구,방배동
ST-1309,2283. 그룹한빌딩옆,126.9891663,37.48652649,9,3,12,서초구,방배동
ST-1310,2284. CJ오쇼핑앞,126.9868012,37.4681015,6,0,6,서초구,방배2동
ST-1311,2285. LH서초3단지 301동 맞은편,127.0226517,37.45742416,2,1,3,서초구,양재1동
ST-1312,2286. 탑성마을입구,127.0558853,37.4585495,0,0,0,서초구,내곡동
ST-1313,2287. 능안마을입구,127.0671005,37.45561981,7,0,7,서초구,내곡동
ST-1314,2288. 안골마을입구,127.0644531,37.45560837,1,0,1,서초구,내곡동
ST-1315,2289. 남태령역 2번출구,126.9885254,37.46429825,15,0,15,서초구,방배동
ST-1360,2293. SPC 앞,127.0369949,37.48479843,0,0,0,강남구,도곡1동
ST-1361,2294. 두상빌딩 앞,127.0462418,37.47590637,10,3,13,서초구,양재동
ST-1404,2297. 남부터미널역 1번출구,127.0159226,37.485672,7,3,10,서초구,서초3동
ST-1405,2298. 래미안서초스위트앞,127.0216065,37.50241089,1,1,2,서초구,서초동
ST-1406,2299. 한전아트센터 앞,127.0280609,37.48646927,0,1,1,서초구,서초동
ST-777,2301. 현대고등학교 건너편,127.0217896,37.52407074,12,1,13,강남구,압구정동
ST-787,2302. 교보타워 버스정류장(신논현역 3번출구 후면),127.0242767,37.5055809,8,4,12,강남구,논현동
ST-788,2303. 논현역 10번출구,127.0214615,37.51137161,8,3,11,강남구,논현동
ST-789,2304. 대현그린타워,127.0356522,37.5116272,0,0,0,강남구,논현동
ST-790,2305. MCM 본사 직영점 앞,127.0345078,37.52064133,5,0,5,강남구,논현2동
ST-791,2306. 압구정역 2번 출구 옆,127.028717,37.5271225,9,0,9,강남구,신사동
ST-792,2307. 압구정 한양 3차 아파트,127.0390167,37.52838135,6,1,7,강남구,압구정동
ST-793,2308. 압구정파출소 앞,127.0355988,37.52930069,5,1,6,강남구,압구정동
ST-783,2309. 청담역(우리들병원 앞),127.0493851,37.51890182,5,0,5,강남구,청담동
ST-794,2310. 청담동 맥도날드 옆(위치),127.0401764,37.52361298,11,1,12,강남구,청담동
ST-786,2311. 학동로 래미안 아파트 앞,127.0430222,37.51777267,6,2,8,강남구,청담동
ST-795,2312. 청담역 13번 출구 앞,127.0563278,37.52058029,6,0,6,강남구,청담동
ST-796,2313. 금원빌딩 앞,127.0524674,37.52511597,14,1,15,강남구,청담동
ST-798,2314. 청담나들목입구,127.0610352,37.52127457,0,0,0,강남구,삼성1동
ST-799,2315. 봉은사역 5번출구 옆,127.0611191,37.51424789,11,1,12,강남구,삼성동
ST-784,2317. 삼성도로공원,127.0662003,37.51588821,6,0,6,강남구,삼성동
ST-801,2318. 삼성중앙역4번출구(문화센터더 리빌),127.0550308,37.51357651,27,0,27,강남구,삼성동
ST-802,2319. 포스코사거리 서측(수협 삼성동 지점),127.0546799,37.50660706,19,7,26,강남구,삼성2동
ST-803,2320. 도곡역 대치지구대 방향,127.0569687,37.4919281,9,1,10,강남구,대치동
ST-804,2321. 학여울역 사거리,127.0694428,37.49611664,3,2,5,강남구,대치2동
ST-806,2323. 주식회사 오뚜기 정문 앞,127.0672073,37.50221252,7,5,12,강남구,대치동
