관리번호,공원명,공원구분,소재지도로명주소,소재지지번주소,위도,경도,공원면적,공원보유시설(운동시설),공원보유시설(유희시설),공원보유시설(편익시설),공원보유시설(교양시설),공원보유시설(기타시설),지정고시일,관리기관명,전화번호,데이터기준일자,제공기관코드,제공기관명
47190-00127,백현체육공원,체육공원,,경상북도 구미시 산동면 백현리 79,36.18642933,128.4784907,90967,,,,,,,,,2022-06-09,5080000,경상북도 구미시
47190-00128,둘모아공원,어린이공원,,경상북도 구미시 봉곡동 584-2,36.148431,128.3165939,4279,,,,,,,,,2022-06-09,5080000,경상북도 구미시
47190-00129,다붓소공원,소공원,,경상북도 구미시 봉곡동 765 일원,36.155883,128.311526,805,,,,,,,,,2022-06-09,5080000,경상북도 구미시
47190-00130,다붓1공원,어린이공원,,경상북도 구미시 봉곡동 457-1,36.156392,128.314372,1585,,,,,,,,,2022-06-09,5080000,경상북도 구미시
47190-00131,다붓2공원,어린이공원,,경상북도 구미시 봉곡동 767,36.15480813,128.314372,1637,,,,,,,,,2022-06-09,5080000,경상북도 구미시
47190-00132,공원,소공원,,경상북도 구미시 광평동 77-21,36.10887845,128.3643983,466,,,,,,,,,2022-06-09,5080000,경상북도 구미시
47190-00133,산림문화생태근린공원,근린공원,경상북도 구미시 인덕1길 240,경상북도 구미시 산동면 인덕리 산 5-1,36.16509915,128.4604655,1059228,,,,,,,,,2022-06-09,5080000,경상북도 구미시
47190-00134,지산샛강생태공원,수변공원,,경상북도 구미시 지산동 847-72,36.13575859,128.3518755,214265,,,,,,,,,2022-06-09,5080000,경상북도 구미시
47190-00135,도담공원,근린공원,,경상북도 구미시 옥계동 1308,36.14107104,128.4230508,31553,,,,,,,,,2022-06-09,5080000,경상북도 구미시
47190-00136,선비공원,근린공원,,경상북도 구미시 산동면 신당리 1693,36.156353,128.435169,40107.7,,,,,,,,,2022-06-09,5080000,경상북도 구미시
47190-00137,무지개공원,어린이공원,,경상북도 구미시 산동면 신당리 1641,36.156482,128.438079,2260,,,,,,,,,2022-06-09,5080000,경상북도 구미시
47190-00138,달빛공원,어린이공원,,경상북도 구미시 옥계동 1236,36.14280245,128.4229606,1682.8,,,,,,,,,2022-06-09,5080000,경상북도 구미시
47190-00139,솔찬공원,어린이공원,,경상북도 구미시 옥계동 1085,36.14471543,128.4207217,1804.4,,,,,,,,,2022-06-09,5080000,경상북도 구미시
47190-00140,근린공원38호,근린공원,,경상북도 구미시 고아읍 문성리 1775번지,36.15358372,128.3489419,9788.6,,,,,,,,,2022-06-09,5080000,경상북도 구미시
47190-00141,서울나들공원,근린공원,,경상북도 구미시 산동면 신당리 산81-1번지,36.15664981,128.426117,15124,,,,,,,,,2022-06-09,5080000,경상북도 구미시
47190-00142,산동물빛공원,근린공원,,경상북도 구미시 산동면 신당리 1723번지,36.15918786,128.4303439,36106,,,,,,,,,2022-06-09,5080000,경상북도 구미시
47190-00143,원당공원,근린공원,,경상북도 구미시 산동면 신당리 2021번지,36.14742092,128.425286,41643,,,,,,,,,2022-06-09,5080000,경상북도 구미시
47190-00144,우항공원,근린공원,,경상북도 구미시 산동면 신당리 2017,36.15302879,128.4314654,65794,,,,,,,,,2022-06-09,5080000,경상북도 구미시
47190-00145,이리공원,소공원,,경상북도 구미시 고아읍 이례리 442번지,36.20777827,128.3254036,194,,,,,,,,,2022-06-09,5080000,경상북도 구미시
47190-00146,공원,소공원,,경상북도 구미시 도량동 874번지,36.14191033,128.3317618,2653.6,,,,,,,,,2022-06-09,5080000,경상북도 구미시
47190-00147,공원,소공원,,경상북도 구미시 도량동 872번지,36.14402391,128.330306,1126.5,,,,,,,,,2022-06-09,5080000,경상북도 구미시
47190-00148,공원,소공원,,경상북도 구미시 공단동 282-90번지,36.09893683,128.3669961,1644,,,,,,,,,2022-06-09,5080000,경상북도 구미시
47190-00149,공원,소공원,,경상북도 구미시 진평동 644-7번지,36.09987629,128.4135851,992,,,,,,,,,2022-06-09,5080000,경상북도 구미시
47190-00150,소소공원,소공원,,경상북도 구미시 공단동 297-25번지,36.08902643,128.3902075,1223,,,,,,,,,2022-06-09,5080000,경상북도 구미시
47190-00151,화개공원,근린공원,,경상북도 구미시 고아읍 이례리 산6번지 일원,36.20952278,128.3237011,13063,,,,,,,,,2022-06-09,5080000,경상북도 구미시
47190-00152,양지공원,근린공원,,경상북도 구미시 신평동 6-38번지 일원,36.12561583,128.3589071,56148,,,,,,,,,2022-06-09,5080000,경상북도 구미시
47190-00153,꽃동산공원,근린공원,,경상북도 구미시 도량동 산25번지 일원,36.13990856,128.3287298,750000,,,,,,,,,2022-06-09,5080000,경상북도 구미시
47190-00154,중앙공원,근린공원,,경상북도 구미시 광평동 산57번지 일원,36.11214048,128.3452314,266534,,,,,,,,,2022-06-09,5080000,경상북도 구미시
47190-00155,오태공원,근린공원,,경상북도 구미시 임은동 산7번지 일원,36.08321216,128.3652958,318154.6,,,,,,,,,2022-06-09,5080000,경상북도 구미시
31200-12505,통새미공원,어린이공원,,울산광역시 북구 화봉동 649,35.59087332,129.3604763,1554,체육시설(4),조합놀이대(모래)(2),파고라(1)+등의자(4),,CCTV(3),1997-07-15,울산광역시 북구청,052-241-7942,2022-06-13,3720000,울산광역시 북구
31200-12506,송내공원,어린이공원,,울산광역시 북구 화봉동 424-1,35.59232858,129.3625324,4218,족구장(1),조합놀이대(모래)(1)+시소(2),화장실(1)+파고라(1)+등의자(2)+평의자(2),,CCTV(2),1997-07-15,울산광역시 북구청,052-241-7942,2022-06-13,3720000,울산광역시 북구
31200-12507,청솔공원,어린이공원,,울산광역시 북구 화봉동 468-1,35.58853845,129.3700584,1539,체육시설(4),조합놀이대(모래)(1)+기타놀이대(1)+그네(1),화장실(1)+파고라(1)+등의자(2)+평상(1),,CCTV(2),1997-07-15,울산광역시 북구청,052-241-7942,2022-06-13,3720000,울산광역시 북구
31200-12208,상방공원,근린공원,,울산광역시 북구 연암동 378,35.58425629,129.368571,12025,체육시설(8)+농구대(2),조합놀이대(모래)(1)+그네(1),파고라(2)+등의자(13),,CCTV(3),1997-07-15,울산광역시 북구청,052-241-7942,2022-06-13,3720000,울산광역시 북구
31200-12509,화봉공원,근린공원,,울산광역시 북구 화봉동 445-1,35.58943549,129.3648249,11422,체육시설(6)+풋살구장(1),조합놀이대(모래)(1),화장실(1)+파고라(6)+등의자(9)+평의자(6),,CCTV(2),1997-07-15,울산광역시 북구청,052-241-7942,2022-06-13,3720000,울산광역시 북구
31200-12710,성내어린이공원,어린이공원,,울산광역시 북구 염포동 995-11,35.52393871,129.4016103,1758,체육시설(8),조합놀이대(모래)(1)+그네(1)+흔들놀이(2),팔각정자(1)+등의자(11)+음수대(1),,CCTV(3),1998-03-01,울산광역시 북구청,052-241-7942,2022-06-13,3720000,울산광역시 북구
31200-10211,수동공원,어린이공원,,울산광역시 북구 호계동 669,35.62489541,129.3574434,1500,체육시설(2),조합놀이대(모래)(1),파고라(1)+등의자(5)+평의자(3),,CCTV(2),2000-03-04,울산광역시 북구청,052-241-7942,2022-06-13,3720000,울산광역시 북구
41590-00510,71호,기타,,경기도 화성시 오산동 1030-20,37.1857292,127.1026187,6934,,,,,,,,031-5189-6961,2022-11-01,5530000,경기도 화성시
31200-10212,우리공원,어린이공원,,울산광역시 북구 호계동 263-2,35.63174258,129.3560799,2066,체육시설(5),조합놀이대(모래)(1),파고라(1)+등의자(6),,CCTV(3),2002-08-20,울산광역시 북구청,052-241-7942,2022-06-13,3720000,울산광역시 북구
31200-10213,희망공원,어린이공원,,울산광역시 북구 호계동 262-1,35.63153712,129.3535152,1941,,조합놀이대(모래)(1),파고라(1)+등의자(3)+평의자(6),야외무대(1),CCTV(2),2002-08-20,울산광역시 북구청,052-241-7942,2022-06-13,3720000,울산광역시 북구
31200-10214,오뚜기공원,어린이공원,,울산광역시 북구 호계동 256,35.62974926,129.3519602,1551,체육시설(5),조합놀이대(고무칩)(1),파고라(1)+등의자(6)+평의자(4),,CCTV(2),2002-08-20,울산광역시 북구청,052-241-7942,2022-06-13,3720000,울산광역시 북구
31200-10215,해맑은공원,어린이공원,,울산광역시 북구 호계동 265-8,35.63016398,129.3577975,2140,풋살구장(1),조합놀이대(모래)(1)+그네(1),화장실(1)+파고라(1)+등의자(5)+평의자(4),,CCTV(3),2002-08-20,울산광역시 북구청,052-241-7942,2022-06-13,3720000,울산광역시 북구
31200-10216,으뜸공원,어린이공원,,울산광역시 북구 호계동 284-5,35.62892516,129.3557885,1840,체육시설(4),조합놀이대(고무칩)(1),화장실(1)+파고라(1)+등의자(4)+평의자(5),,CCTV(3),2002-08-20,울산광역시 북구청,052-241-7942,2022-06-13,3720000,울산광역시 북구
31200-10217,종달새공원,어린이공원,,울산광역시 북구 호계동 276-4,35.62772724,129.3532853,2041,체육시설(4),조합놀이대(모래)(1),파고라(1)+평의자(2),,CCTV(2),2002-08-20,울산광역시 북구청,052-241-7942,2022-06-13,3720000,울산광역시 북구
31200-10618,중산어린이공원,어린이공원,,울산광역시 북구 중산동 569,35.66164585,129.3370105,5443,체육시설(11)+미니골대(2),조합놀이대(고무칩)(2),팔각정자(2)+등의자(2)+평의자(2),,CCTV(2),2005-06-15,울산광역시 북구청,052-241-7942,2022-06-13,3720000,울산광역시 북구
31200-10319,매곡산단공원(매곡2),근린공원,,울산광역시 북구 매곡동 351-9,35.64347912,129.367077,10043,,,,,,2006-05-21,울산광역시 북구청,052-241-7942,2022-06-13,3720000,울산광역시 북구
31200-10520,신천어린이공원,어린이공원,,울산광역시 북구 신천동 114-5,35.64219111,129.3493598,2077,체육시설(5),"조합놀이대(고무칩, 물놀이장)(2)+기타놀이대(1)",파고라(5)+등의자(4),,CCTV(3),2007-09-11,울산광역시 북구청,052-241-7942,2022-06-13,3720000,울산광역시 북구
31200-10721,상안어린이공원,어린이공원,,울산광역시 북구 상안동 352,35.62762957,129.3443087,4795,체육시설(5)+농구대(1)+풋살구장(1),조합놀이대(고무칩)(1)+기타놀이대(1),파고라(3)+평의자(11)+자전거대(1),,CCTV(3),2007-11-23,울산광역시 북구청,052-241-7942,2022-06-13,3720000,울산광역시 북구
31200-10322,매곡1어린이공원,어린이공원,,울산광역시 북구 매곡동 848,35.64352314,129.3536182,1500,체육시설(2),조합놀이대(고무칩)(1)+그네(1)+흔들놀이대(3)+기타놀이대(1),파고라(1)+평상(1),,CCTV(2),2008-03-10,울산광역시 북구청,052-241-7942,2022-06-13,3720000,울산광역시 북구
31200-10524,신천소공원,소공원,,울산광역시 북구 신천동 784,35.64659206,129.3459848,6435,체육시설(5),,파고라(1)+등의자(12)+평의자(4),야외무대(1)+유물전시(1),CCTV(4),2011-02-09,울산광역시 북구청,052-241-7942,2022-06-13,3720000,울산광역시 북구
31200-10325,온누리공원,근린공원,,울산광역시 북구 매곡동 산90,35.64505397,129.3606976,20223,다목적구장(1)+농구대(1)+체육시설(16),조합놀이대(고무칩)(1)+흔들놀이대(6)+그네(1)+시소(1)+기타놀이대(1),막파고라(8)+자전거대(2)+등의자(19),유물전시(1),CCTV(3),2011-06-20,울산광역시 북구청,052-241-7942,2022-06-13,3720000,울산광역시 북구
31200-12526,아람어린이공원,어린이공원,,울산광역시 북구 화봉동 1338-2,35.5960765,129.3661983,1632,체육시설(3),조합놀이대(고무칩)(1)+기타놀이대(1)+흔들놀이대(3),파고라(2)+등의자(2)+평의자(7)+음수대(1),,CCTV(1),2011-11-18,울산광역시 북구청,052-241-7942,2022-06-13,3720000,울산광역시 북구
31200-12527,아라어린이공원,어린이공원,,울산광역시 북구 화봉동 1339-3,35.59561286,129.3682584,1509,체육시설(2),조합놀이대(고무매트)(1)+기타놀이대(2)+흔들놀이대(4),파고라(2)+등의자(5)+평의자(4),,CCTV(3),2011-11-18,울산광역시 북구청,052-241-7942,2022-06-13,3720000,울산광역시 북구
31200-12528,누리어린이공원,어린이공원,,울산광역시 북구 화봉동 1457-3,35.59120693,129.3702529,6248,체육시설(6),조합놀이대(고무칩)(1)+그네(1)+흔들놀이대(3),파고라(2)+등의자(12)+평의자(8),교통시설물(1),CCTV(3),2011-11-18,울산광역시 북구청,052-241-7942,2022-06-13,3720000,울산광역시 북구
31140-00024,새롬공원,어린이공원,,울산광역시 남구 달동 1307-5,35.53419054,129.3397376,2550.1,,"조합놀이대, 그네",,,,1988-08-25,울산광역시 남구청,052-226-5903,2022-03-31,3700000,울산광역시 남구
31140-00025,아름공원,어린이공원,,울산광역시 남구 달동 1303-4,35.5344258,129.3378544,2640,,"조합놀이대, 그네",,,,1988-08-25,울산광역시 남구청,052-226-5903,2022-03-31,3700000,울산광역시 남구
31140-00026,자두공원,어린이공원,,울산광역시 남구 달동 1260-1,35.53677824,129.3342888,1502,,"조합놀이대, 시소",,,,1988-08-25,울산광역시 남구청,052-226-5903,2022-03-31,3700000,울산광역시 남구
31140-00027,초록빛공원,어린이공원,,울산광역시 남구 달동 1289-4,35.53469312,129.3343309,3280.1,,조합놀이대,파고라,,,1988-08-25,울산광역시 남구청,052-226-5903,2022-03-31,3700000,울산광역시 남구
31140-00028,가람공원,어린이공원,,울산광역시 남구 삼산동 1459-2,35.54782507,129.334889,1524.2,,조합놀이대,,,,1988-11-03,울산광역시 남구청,052-226-5903,2022-03-31,3700000,울산광역시 남구
31140-00029,강변공원,어린이공원,,울산광역시 남구 삼산동 1463-1,35.54595386,129.3323042,4393.5,,조합물놀이장,"화장실, 파고라",,,1988-11-03,울산광역시 남구청,052-226-5903,2022-03-31,3700000,울산광역시 남구
31140-00030,벚꽃공원,어린이공원,,울산광역시 남구 삼산동 1490-1,35.54747457,129.3297209,3191.6,,"조합놀이대, 그네",,,,1988-11-03,울산광역시 남구청,052-226-5903,2022-03-31,3700000,울산광역시 남구
31140-00031,웨딩테마공원,어린이공원,,울산광역시 남구 삼산동 1495-1,35.5477557,129.3264852,2895.4,,"조합놀이대, 흔들놀이기구",,,,1988-11-03,울산광역시 남구청,052-226-5903,2022-03-31,3700000,울산광역시 남구
31140-00032,은비공원,어린이공원,,울산광역시 남구 삼산동 1461-2,35.54487717,129.3333192,1720.2,농구장,조합놀이대,파고라,,,1988-11-03,울산광역시 남구청,052-226-5903,2022-03-31,3700000,울산광역시 남구
31140-00033,배남공원,근린공원,,울산광역시 남구 용연동 580-1,35.48518867,129.3585024,24474,,,,,,1990-01-25,울산광역시 남구청,052-226-4853,2022-03-31,3700000,울산광역시 남구
31140-00034,여천1호공원,근린공원,,울산광역시 남구 여천동 355-5,35.5216459,129.3466934,11965,,,,,,1990-01-31,울산광역시 남구청,052-226-4853,2022-03-31,3700000,울산광역시 남구
31140-00035,마단공원,어린이공원,,울산광역시 남구 달동 1337-9,35.54126301,129.3292343,2529.2,,조합놀이대,파고라,,,1990-02-08,울산광역시 남구청,052-226-5903,2022-03-31,3700000,울산광역시 남구
31140-00036,비둘기공원,어린이공원,,울산광역시 남구 달동 1332-2,35.54258379,129.3320571,1953,,조합놀이대,파고라,,,1990-02-08,울산광역시 남구청,052-226-5903,2022-03-31,3700000,울산광역시 남구
31140-00037,왕생이공원,어린이공원,,울산광역시 남구 달동 1345-6,35.5400934,129.3296233,2538.2,,"조합놀이대, 그네, 시소2",파고라,,,1990-02-08,울산광역시 남구청,052-226-5903,2022-03-31,3700000,울산광역시 남구
31140-00038,정다운공원,어린이공원,,울산광역시 남구 달동 1352-1,35.54176284,129.3345689,3884,족구장,조합놀이대,,,,1990-02-08,울산광역시 남구청,052-226-5903,2022-03-31,3700000,울산광역시 남구
31140-00039,햇살공원,어린이공원,,울산광역시 남구 달동 1349-2,35.54023667,129.3323932,2023.1,,"조합놀이대2, 시소",파고라,,,1990-02-08,울산광역시 남구청,052-226-5903,2022-03-31,3700000,울산광역시 남구
31140-00040,느티공원,어린이공원,,울산광역시 남구 달동 1392-3,35.53293804,129.3199339,1500,,조합놀이대,,,,1990-09-13,울산광역시 남구청,052-226-5903,2022-03-31,3700000,울산광역시 남구
31140-00041,다문화공원,어린이공원,,울산광역시 남구 달동 1407-1,35.53345362,129.317296,1505.9,,조합놀이대,파고라,,,1990-09-13,울산광역시 남구청,052-226-5903,2022-03-31,3700000,울산광역시 남구
31140-00042,하나공원,어린이공원,,울산광역시 남구 달동 1377-6,35.53212247,129.328532,1500,,조합놀이대,파고라,,,1990-09-13,울산광역시 남구청,052-226-5903,2022-03-31,3700000,울산광역시 남구
31140-00043,동평공원,어린이공원,,울산광역시 남구 달동 134-1,35.53452471,129.3240067,2704.6,,"조합물놀이장, 그네","화장실, 파고라",,,1990-11-20,울산광역시 남구청,052-226-5903,2022-03-31,3700000,울산광역시 남구
31140-00044,쉼터공원,어린이공원,,울산광역시 남구 달동 118-2,35.53559536,129.3266376,3988.4,,"조합놀이대, 그네",파고라,,,1990-11-20,울산광역시 남구청,052-226-5903,2022-03-31,3700000,울산광역시 남구
31140-00045,희망공원,어린이공원,,울산광역시 남구 달동 119-3,35.53395749,129.3272281,2177.2,,조합놀이대,,,,1990-11-20,울산광역시 남구청,052-226-5903,2022-03-31,3700000,울산광역시 남구
31140-00046,가시나무공원,어린이공원,,울산광역시 남구 무거동 1206,35.54957434,129.2757618,1787.5,,조합놀이대,파고라,,,1990-12-02,울산광역시 남구청,052-226-5903,2022-03-31,3700000,울산광역시 남구
31140-00047,솔숲공원,어린이공원,,울산광역시 남구 무거동 1170-1,35.55006859,129.2716553,2426.8,,"조합놀이대, 그네",파고라,,,1990-12-02,울산광역시 남구청,052-226-5903,2022-03-31,3700000,울산광역시 남구
31140-00048,정광공원,어린이공원,,울산광역시 남구 무거동 1260-3,35.5463028,129.2848514,2651.9,,조합놀이대,파고라,,,1990-12-02,울산광역시 남구청,052-226-5903,2022-03-31,3700000,울산광역시 남구
31140-00049,이슬공원,어린이공원,,울산광역시 남구 삼산동 1553-1,35.54299687,129.3411288,2392,,"조합놀이대, 그네, 미끄럼틀",파고라,,,1991-01-08,울산광역시 남구청,052-226-5903,2022-03-31,3700000,울산광역시 남구
31140-00050,포그니공원,어린이공원,,울산광역시 남구 삼산동 1560-5,35.54150912,129.3430834,1744.3,,시소,파고라,,,1991-01-08,울산광역시 남구청,052-226-5903,2022-03-31,3700000,울산광역시 남구
41370-00108,세교2 제5호 수변공원,수변공원,,경기도 오산시 금암동 198,37.1695016,127.049281,1258,,,,,,2016-03-31,경기도 오산시환경사업소 공원녹지과,031-8036-6473,2022-04-30,4000000,경기도 오산시
41370-00109,원동수변공원,수변공원,경기도 오산시 부원로87번길 51,경기도 오산시 원동 715-8,37.140907,127.091507,17788,,,,,,2018-11-06,경기도 오산시환경사업소 공원녹지과,031-8036-6473,2022-04-30,4000000,경기도 오산시
41370-00110,가장동체육공원,체육공원,경기도 오산시 가장산업동로 49,경기도 오산시 가장동 382-4,37.164782,127.041189,11856,,,,,,2016-03-14,경기도 오산시환경사업소 공원녹지과,031-8036-6473,2022-04-30,4000000,경기도 오산시
31140-00001,청솔공원,어린이공원,,울산광역시 남구 신정동 689-4,35.53661172,129.3101993,2884,,,,,,1963-05-03,울산광역시 남구청,052-226-5903,2022-03-31,3700000,울산광역시 남구
31140-00002,비단공원,어린이공원,,울산광역시 남구 신정동 161-1,35.54291934,129.3200912,1508.1,,"조합놀이대, 흔들놀이기구",파고라,,,1971-01-27,울산광역시 남구청,052-226-5903,2022-03-31,3700000,울산광역시 남구
31140-00003,문화공원,근린공원,,울산광역시 남구 달동 416-1,35.54289686,129.3270733,56354.9,,어린이놀이마당,"지하주차장, 화장실, 매점",,썬큰가든,1976-08-28,울산광역시 남구청,052-226-4853,2022-03-31,3700000,울산광역시 남구
31140-00004,감골공원,어린이공원,,울산광역시 남구 신정동 1557-11,35.54095442,129.2985963,1932,,"조합놀이대, 그네",파고라,,,1978-12-19,울산광역시 남구청,052-226-5903,2022-03-31,3700000,울산광역시 남구
31140-00005,봉월공원,어린이공원,,울산광역시 남구 신정동 1316-35,35.54244422,129.3044988,1886,,조합놀이대,"화장실, 파고라",,,1978-12-19,울산광역시 남구청,052-226-5903,2022-03-31,3700000,울산광역시 남구
31140-00006,푸른공원,어린이공원,,울산광역시 남구 신정동 1891,35.53650067,129.3029414,1800.3,,"조합놀이대, 그네2",파고라,,,1978-12-19,울산광역시 남구청,052-226-5903,2022-03-31,3700000,울산광역시 남구
31140-00007,무둔실공원,어린이공원,,울산광역시 남구 신정동 78-4,35.54556741,129.3205712,1982,,조합놀이대,파고라,,,1979-04-14,울산광역시 남구청,052-226-5903,2022-03-31,3700000,울산광역시 남구
31140-00008,산학공원,어린이공원,,울산광역시 남구 무거동 575-1,35.5386066,129.2539074,1653.6,,"조합놀이대, 시소",파고라,,,1981-02-28,울산광역시 남구청,052-226-5903,2022-03-31,3700000,울산광역시 남구
31140-00009,전골공원,어린이공원,,울산광역시 남구 무거동 579-1,35.54017248,129.2553016,1662.6,,"조합놀이대, 그네",파고라,,,1981-02-28,울산광역시 남구청,052-226-5903,2022-03-31,3700000,울산광역시 남구
31140-00010,진등공원,어린이공원,,울산광역시 남구 무거동 625-15,35.54032308,129.2598673,1665.8,,"조합놀이대, 흔들놀이기구2, 시소, 그네",파고라,,,1981-02-28,울산광역시 남구청,052-226-5903,2022-03-31,3700000,울산광역시 남구
31140-00011,신복소공원,소공원,,울산광역시 남구 무거동 327-26,35.55114598,129.2643491,687.1,,,,,,1984-12-26,울산광역시 남구청,052-226-5903,2022-03-31,3700000,울산광역시 남구
31140-00012,수암공원,어린이공원,,울산광역시 남구 야음동 753-7,35.52142413,129.3212878,992,,조합놀이대,파고라,,,1986-02-25,울산광역시 남구청,052-226-5903,2022-03-31,3700000,울산광역시 남구
31140-00013,울산대공원,근린공원,,울산광역시 남구 옥동 산 242,35.5281225,129.2916621,3699833,"파크골프장, 수영장, 양궁장","어린이놀이터, 뜀동산, 무지개그물놀이","주차장, 매점, 화장실","동물원, 교통안전공원",애견정원,1986-08-19,울산광역시 남구청,052-226-4853,2022-03-31,3700000,울산광역시 남구
31140-00014,문수공원,어린이공원,,울산광역시 남구 무거동 832-1,35.54913976,129.2545131,3007.6,농구장,"조합놀이대, 그네",파고라,,,1987-01-26,울산광역시 남구청,052-226-5903,2022-03-31,3700000,울산광역시 남구
31140-00015,헐수정공원,어린이공원,울산광역시 남구 신복로23번길 16,울산광역시 남구 무거동 837,35.54738789,129.2585825,4078.6,,조합놀이대,,,,1987-01-26,울산광역시 남구청,052-226-5903,2022-03-31,3700000,울산광역시 남구
31140-00016,쇠터공원,어린이공원,,울산광역시 남구 옥동 128-2,35.53101141,129.2956558,1520,,조합놀이대,,,,1987-02-28,울산광역시 남구청,052-226-5903,2022-03-31,3700000,울산광역시 남구
31140-00017,동백공원,어린이공원,,울산광역시 남구 달동 773-7,35.5324733,129.322888,1500,,조합놀이대,,,,1987-07-16,울산광역시 남구청,052-226-5903,2022-03-31,3700000,울산광역시 남구
31140-00018,늘푸른공원,어린이공원,,울산광역시 남구 삼산동 1476-5,35.53734762,129.3369026,2012,,그네2,,,,1987-11-14,울산광역시 남구청,052-226-5903,2022-03-31,3700000,울산광역시 남구
31140-00019,움골공원,어린이공원,,울산광역시 남구 옥동 279-4,35.53703452,129.2870305,1840.1,,조합놀이대,,,,1988-08-20,울산광역시 남구청,052-226-5903,2022-03-31,3700000,울산광역시 남구
31140-00020,은월공원,어린이공원,,울산광역시 남구 옥동 1388-16,35.53745101,129.2944252,1971,,조합놀이대,파고라,,,1988-08-20,울산광역시 남구청,052-226-5903,2022-03-31,3700000,울산광역시 남구
31140-00021,개미공원,어린이공원,,울산광역시 남구 옥동 585-1,35.53657185,129.2890007,1840,,"조합놀이대, 그네",,,,1988-08-20,울산광역시 남구청,052-226-5903,2022-03-31,3700000,울산광역시 남구
31140-00022,동그라미공원,어린이공원,,울산광역시 남구 달동 1293-3,35.53400255,129.3318377,4316.9,,"조합놀이대, 그네, 시소2",,,,1988-08-25,울산광역시 남구청,052-226-5903,2022-03-31,3700000,울산광역시 남구
31140-00023,목화공원,어린이공원,,울산광역시 남구 달동 1268-7,35.53631167,129.3311914,1502.1,,"조합놀이대, 그네2, 시소2",파고라,,,1988-08-25,울산광역시 남구청,052-226-5903,2022-03-31,3700000,울산광역시 남구
28185-00021,함박공원,어린이공원,,인천광역시 연수구 연수동 535-3,37.4222546,126.6810562,5028,,,,,,1987-11-19,인천광역시 연수구청,032-749-8692,2021-10-22,3520000,인천광역시 연수구
41430-00111,근린공원,근린공원,경기도 의왕시 초평동 19-1,경기도 의왕시 초평동 19-1,37.31853826,126.9444774,14234,,,,,,2017-04-10,경기도 의왕시청,031-345-3083,2022-06-13,4030000,경기도 의왕시
41430-00114,갈미한글공원,문화공원,경기도 의왕시 내손동 228-1,경기도 의왕시 내손동 228-1,37.37796498,126.9849552,12537,,,,,분수,2011-05-17,경기도 의왕시청,031-345-3534,2022-06-13,4030000,경기도 의왕시
41430-00115,문화공원3,문화공원,경기도 의왕시 고천동 100-2,경기도 의왕시 고천동 100-2,37.34045017,126.9724043,15982,,,,,,2016-12-28,경기도 의왕시청,031-345-3083,2022-06-13,4030000,경기도 의왕시
41430-00116,노을빛공원,수변공원,경기도 의왕시 포일동 646-1,경기도 의왕시 포일동 646-1,37.40055682,126.9853646,7074.7,,,,,분수,2006-01-12,경기도 의왕시청,031-345-3534,2022-06-13,4030000,경기도 의왕시
41430-00117,부곡공원,수변공원,경기도 의왕시 삼동 629,경기도 의왕시 삼동 629,37.31798015,126.9567633,1085,,,,,,2014-10-31,경기도 의왕시청,031-345-3534,2022-06-13,4030000,경기도 의왕시
41430-00118,웃골공원,수변공원,경기도 의왕시 삼동 608,경기도 의왕시 삼동 608,37.31950435,126.9607335,5452.3,,,,,분수,2014-10-31,경기도 의왕시청,031-345-3534,2022-06-13,4030000,경기도 의왕시
41430-00119,아랫골공원,수변공원,경기도 의왕시 삼동 624,경기도 의왕시 삼동 624,37.31770136,126.9581511,17685.8,,,,,,2014-10-31,경기도 의왕시청,031-345-3534,2022-06-13,4030000,경기도 의왕시
41430-00120,공원,수변공원,경기도 의왕시 학의동 590,경기도 의왕시 학의동 590,37.37393939,127.0063426,3905,,,,,,2015-01-23,경기도 의왕시청,031-345-3833,2022-06-13,4030000,경기도 의왕시
41430-00121,공원,수변공원,경기도 의왕시 속말길 27,경기도 의왕시 학의동 727-2,37.372411,127.007843,27924,,,,,,2015-01-23,경기도 의왕시청,031-345-3833,2022-06-13,4030000,경기도 의왕시
41430-00122,공원,수변공원,경기도 의왕시 학의동 695,경기도 의왕시 학의동 695,37.37208619,127.0037513,8815,,,,,,2015-01-23,경기도 의왕시청,031-345-3833,2022-06-13,4030000,경기도 의왕시
41430-00123,공원,수변공원,경기도 의왕시 학의동 915-1,경기도 의왕시 학의동 915-1,37.36924143,127.0021326,13942,,,,,,2015-01-23,경기도 의왕시청,031-345-3833,2022-06-13,4030000,경기도 의왕시
41430-00124,공원,수변공원,경기도 의왕시 학의동 961-3,경기도 의왕시 학의동 961-3,37.36578049,127.0032943,4343,,,,,,2015-01-23,경기도 의왕시청,031-345-3833,2022-06-13,4030000,경기도 의왕시
41430-00125,공원,수변공원,경기도 의왕시 고천동 252,경기도 의왕시 고천동 252,37.34787856,126.9720646,11539,,,,,,2016-12-28,경기도 의왕시청,031-345-3833,2022-06-13,4030000,경기도 의왕시
41430-00126,청계공원,묘지공원,경기도 의왕시 청계동 산8-5,경기도 의왕시 청계동 산8-5,37.3977154,127.0352243,628000,,,,,,1987-12-07,경기도 안양시청,031-8045-2238,2022-06-13,4030000,경기도 의왕시
41430-00127,고천체육공원,체육공원,경기도 의왕시 오전로 18,경기도 의왕시 왕곡동 270-2,37.34790019,126.9823494,15635,"축구장, 테니스장+배구+배드민턴",미끄럼틀,"매점, 화장실, 주차장",,,1995-04-19,경기도 의왕시청,031-345-2562,2022-06-13,4030000,경기도 의왕시
41430-00128,부곡체육공원,체육공원,경기도 의왕시 부곡공원길 6,경기도 의왕시 월암동 421,37.31463423,126.9587538,34503,축구장+씨름장+배구+배스민턴,미끄럼틀,"화장실, 주차장",,,2000-06-20,경기도 의왕시청,031-345-2562,2022-06-13,4030000,경기도 의왕시
41430-00129,내손공원,체육공원,경기도 의왕시 내손공원길 39,경기도 의왕시 내손동 666,37.38728649,126.9831857,30556.8,축구장,"미끄럼틀, 그네",화장실,,,1981-12-24,경기도 의왕시청,031-345-2562,2022-06-13,4030000,경기도 의왕시
31200-12201,두부곡어린이공원,어린이공원,,울산광역시 북구 연암동 404-2,35.58642088,129.3652557,1666,체육시설(5),조합놀이대(모래)(1),파고라(1)+등의자(4),,CCTV(3),1997-07-15,울산광역시 북구청,052-241-7942,2022-06-13,3720000,울산광역시 북구
31200-12202,잠실공원,어린이공원,,울산광역시 북구 연암동 292,35.58560676,129.3710676,2513,체육시설(4),조합놀이대(모래)(1)+그네(1),파고라(1)+등의자(4)+평상(2),,CCTV(3),1997-07-15,울산광역시 북구청,052-241-7942,2022-06-13,3720000,울산광역시 북구
31200-12203,늘푸른공원,어린이공원,,울산광역시 북구 연암동 379-5,35.58310419,129.3659296,2063,체육시설(5),그물놀이대(모래)(1),파고라(1)+등의자(2),,CCTV(3),1997-07-15,울산광역시 북구청,052-241-7942,2022-06-13,3720000,울산광역시 북구
31200-12204,안산공원,어린이공원,,울산광역시 북구 연암동 311,35.58161235,129.3689358,1569,체육시설(4),조합놀이대(모래)(1),파고라(1)+등의자(3),,CCTV(3),1997-07-15,울산광역시 북구청,052-241-7942,2022-06-13,3720000,울산광역시 북구
41570-00059,고촌어린이19(수기1공원),어린이공원,,경기도 김포시 고촌읍 신곡리 1249,37.60012704,126.767372,1715,,조합놀이대+그네,,,,2005-06-07,경기도 김포시 공원관리과,031-980-5627,2022-10-18,4090000,경기도 김포시
41570-00060,고촌어린이20(수기2공원),어린이공원,,경기도 김포시 고촌읍 신곡리 1260,37.596805,126.770145,1522,체력단련시설,조합놀이대+그네,,,,2005-06-07,경기도 김포시 공원관리과,031-980-5627,2022-10-18,4090000,경기도 김포시
41570-00061,고촌어린이21(수기3공원),어린이공원,,경기도 김포시 고촌읍 신곡리 1268,37.596252,126.767048,1567,,조합놀이대+그네,,,,2005-06-07,경기도 김포시 공원관리과,031-980-5627,2022-10-18,4090000,경기도 김포시
41570-00063,항공소공원1,소공원,,경기도 김포시 대곶면 대벽리 산66-56,37.617583,126.580436,1968,,,,,,2007-12-17,경기도 김포시 공원녹지과,031-980-2344,2022-10-18,4090000,경기도 김포시
41570-00064,걸포어린이22,어린이공원,,경기도 김포시 걸포동 1560,37.634949,126.7052284,3450,,조합놀이대,,,,2006-01-31,경기도 김포시 공원관리과,031-980-5627,2022-10-18,4090000,경기도 김포시
41570-00065,신곡노을공원(고촌31호),근린공원,,경기도 김포시 고촌읍 신곡리 1106,37.60413566,126.7726878,12881,체력단련시설+농구장+배드민턴장,조합놀이대,화장실,,,2006-02-06,경기도 김포시 공원관리과,031-980-5627,2022-10-18,4090000,경기도 김포시
41430-00105,왕송호수공원,근린공원,경기도 의왕시 초평동 278-1,경기도 의왕시 초평동 278-1,37.31254878,126.9444365,210915,야외운동기구,레일바이크,주차장+화장실+푸드트럭,조류생태과학관,"분수,인공습지",2013-09-06,경기도 의왕시청,031-345-3534,2022-06-13,4030000,경기도 의왕시
41430-00106,근린공원,근린공원,경기도 의왕시 포일동 487,경기도 의왕시 포일동 487,37.39252231,126.9849339,9515,,,,,,2016-05-17,경기도 의왕시청,031-345-3083,2022-06-13,4030000,경기도 의왕시
41430-00107,근린공원,근린공원,경기도 의왕시 내손동 664-18,경기도 의왕시 내손동 664-18,37.39065502,126.9846537,10358.8,,,,,,2016-06-03,경기도 의왕시청,031-345-3083,2022-06-13,4030000,경기도 의왕시
41430-00108,근린공원,근린공원,경기도 의왕시 내손동 691-10,경기도 의왕시 내손동 691-10,37.38274459,126.9793085,10601.9,,,,,,2016-06-03,경기도 의왕시청,031-345-3083,2022-06-13,4030000,경기도 의왕시
41430-00109,근린공원,근린공원,경기도 의왕시 고천동 산 48,경기도 의왕시 고천동 산 48,37.34162973,126.9737404,51709,,,,,,2016-12-28,경기도 의왕시청,031-345-3083,2022-06-13,4030000,경기도 의왕시
41430-00110,근린공원,근린공원,경기도 의왕시 초평동 55-3,경기도 의왕시 초평동 55-3,37.32122797,126.9358181,25874,,,,,,2017-04-10,경기도 의왕시청,031-345-3083,2022-06-13,4030000,경기도 의왕시
41360-00073,이안어린이공원,어린이공원,,"경기도 남양주시 화도읍 창현리 645-19, 645-24, 642-7, 644-4",37.64221861,127.3039419,1675,,,,,,,경기도 남양주시청,031-590-8601,2022-12-07,3990000,경기도 남양주시
41360-00074,별내택지 소공원1,소공원,,경기도 남양주시 별내동 886,37.67491691,127.1336222,2027,,,,,,,경기도 남양주시청,031-590-8601,2022-12-07,3990000,경기도 남양주시
41360-00075,별내택지소공원2,소공원,,경기도 남양주시 별내동 941-2,37.65518368,127.128043,3196,,,,,,,경기도 남양주시청,031-590-8601,2022-12-07,3990000,경기도 남양주시
41360-00076,별내택지어린이공원2,어린이공원,,경기도 남양주시 별내동 838-9,37.6660172,127.1153041,1694,,,,,,,경기도 남양주시청,031-590-8601,2022-12-07,3990000,경기도 남양주시
41360-00077,별내택지어린이공원6,어린이공원,,경기도 남양주시 별내동 1092,37.6510798,127.1144787,1989,,,,,,,경기도 남양주시청,031-590-8601,2022-12-07,3990000,경기도 남양주시
41360-00078,별내택지어린이공원3,어린이공원,경기도 남양주시 별내동 별내3로 285,,37.66271585,127.1164707,2743,,,,,,,경기도 남양주시청,031-590-8601,2022-12-07,3990000,경기도 남양주시
41360-00079,별내택지어린이공원4,어린이공원,,경기도 남양주시 별내동 1130,37.6577684,127.1147836,3040,,,,,,,경기도 남양주시청,031-590-8601,2022-12-07,3990000,경기도 남양주시
41360-00080,별내택지어린이공원7,어린이공원,,경기도 남양주시 별내동 1038-3,37.6460333,127.1154635,4290,,,,,,,경기도 남양주시청,031-590-8601,2022-12-07,3990000,경기도 남양주시
41360-00081,별내택지어린이공원1,어린이공원,,경기도 남양주시 별내동 1162,37.66452648,127.1104557,4299,,,,,,,경기도 남양주시청,031-590-8601,2022-12-07,3990000,경기도 남양주시
41360-00082,별내택지어린이공원5,어린이공원,,경기도 남양주시 별내동 904,37.66061894,127.1268115,6981,,,,,,,경기도 남양주시청,031-590-8601,2022-12-07,3990000,경기도 남양주시
41360-00083,별내택지 근린공원1,근린공원,,경기도 남양주시 별내동 818,37.67007379,127.116929,28459,,,,,,,경기도 남양주시청,031-590-8601,2022-12-07,3990000,경기도 남양주시
41360-00084,별내택지 근린공원2,근린공원,,경기도 남양주시 별내동 956-5,37.6595533,127.1278149,29162,,,,,,,경기도 남양주시청,031-590-8601,2022-12-07,3990000,경기도 남양주시
41360-00085,별내택지 근린공원3,근린공원,경기도 남양주시 순화궁로 313,경기도 남양주시 별내동 939,37.65493394,127.1270364,31560,,,,,,,경기도 남양주시청,031-590-8601,2022-12-07,3990000,경기도 남양주시
41360-00086,별내택지 근린공원7,근린공원,,경기도 남양주시 별내동 988,37.64392211,127.1283003,54318,,,,,,,경기도 남양주시청,031-590-8601,2022-12-07,3990000,경기도 남양주시
41360-00087,별내택지 근린공원4,근린공원,,경기도 남양주시 별내동 918,37.65657399,127.1215905,65676,,,,,,,경기도 남양주시청,031-590-8601,2022-12-07,3990000,경기도 남양주시
41360-00088,별내택지 근린공원6,근린공원,,경기도 남양주시 별내동 1016-3,37.6472205,127.1246392,76348,,,,,,,경기도 남양주시청,031-590-8601,2022-12-07,3990000,경기도 남양주시
41360-00089,별내택지 근린공원5,근린공원,,경기도 남양주시 별내동 1074,37.6540409,127.1157796,144582,,,,,,,경기도 남양주시청,031-590-8601,2022-12-07,3990000,경기도 남양주시
41360-00090,별내택지 체육공원,체육공원,,경기도 남양주시 별내동 861,37.66427015,127.1201524,47845,,,,,,,경기도 남양주시청,031-590-8601,2022-12-07,3990000,경기도 남양주시
41360-00091,별내택지체육공원1,체육공원,,경기도 남양주시 별내동858,37.664986,127.118584,7759,,,,,,,경기도 남양주시청,031-590-8601,2022-12-07,3990000,경기도 남양주시
41360-00092,별내택지 체육공원3,체육공원,,경기도 남양주시 별내동910,37.65972854,127.1213588,12367,,,,,,,경기도 남양주시청,031-590-8601,2022-12-07,3990000,경기도 남양주시
41360-00093,별내택지 체육공원4,체육공원,,경기도 남양주시 별내동908,37.66009632,127.1234243,21946,,,,,,,경기도 남양주시청,031-590-8601,2022-12-07,3990000,경기도 남양주시
41360-00094,마석신도2차1호소공원,소공원,경기도 남양주시 화도읍 비룡로99번길 50,경기도 남양주시 화도읍 묵현리 625-2,37.6629166,127.2986365,295,,,,,,,경기도 남양주시청,031-590-8601,2022-12-07,3990000,경기도 남양주시
41220-00289,수변공원 10호(고덕국제화지구 율포리),수변공원,,경기도 평택시 고덕면 율포리 65답,37.042043,127.044785,11800,,,,,,2013-01-04,경기도 평택시청,031-8024-4247,2022-06-01,3910000,경기도 평택시
41220-00290,수변공원 11호(고덕국제화지구 여염리),수변공원,,경기도 평택시 고덕면 여염리 281-8답,37.042913,127.047362,10395,,,,,,2013-01-04,경기도 평택시청,031-8024-4247,2022-06-01,3910000,경기도 평택시
41220-00291,수변공원 12호(고덕국제화지구 율포리),수변공원,,경기도 평택시 고덕면 율포리 산11-5임,37.04237,127.043867,26763,,,,,,2013-01-04,경기도 평택시청,031-8024-4247,2022-06-01,3910000,경기도 평택시
41220-00292,수변공원 13호(고덕국제화지구  장당동),수변공원,,경기도 평택시 장당동 559-1대,37.041184,127.07125,13428,,,,,,2013-01-04,경기도 평택시청,031-8024-4247,2022-06-01,3910000,경기도 평택시
41220-00293,수변공원 14호(고덕국제화지구  율포리),수변공원,,경기도 평택시 고덕면 율포리 2-6목,37.0499,127.043385,8285,,,,,,2013-01-04,경기도 평택시청,031-8024-4247,2022-06-01,3910000,경기도 평택시
41220-00294,수변공원 15호(고덕국제화지구  장당동),수변공원,,경기도 평택시 장당동 524-58답,37.04907,127.052502,30638,,,,,,2013-01-04,경기도 평택시청,031-8024-4247,2022-06-01,3910000,경기도 평택시
29140-00054,살구,어린이공원,,광주광역시 서구 풍암동 1062,35.12080041,126.8825173,2191,0,1,7,0,8,1995-06-30,광주광역시 서구청,062-360-7512,2022-11-28,3600000,광주광역시 서구
41220-00295,수변공원 1호(고덕국제화지구 해창리),수변공원,,경기도 평택시 고덕면 해창리 99답,37.027325,127.029194,4809,,,,,,2013-01-04,경기도 평택시청,031-8024-4247,2022-06-01,3910000,경기도 평택시
41220-00296,수변공원 2호(고덕국제화지구 궁리),수변공원,,경기도 평택시 고덕면 궁리 303-2목,37.027408,127.0333,67862,,,,,,2013-01-04,경기도 평택시청,031-8024-4247,2022-06-01,3910000,경기도 평택시
41220-00297,수변공원 3호(고덕국제화지구 해창리),수변공원,,경기도 평택시 고덕면 해창리 66답,37.030342,127.031781,56051,,,,,,2013-01-04,경기도 평택시청,031-8024-4247,2022-06-01,3910000,경기도 평택시
41220-00298,수변공원 4호(고덕국제화지구 궁리),수변공원,,경기도 평택시 고덕면 궁리 310답,37.030414,127.033791,15746,,,,,,2013-01-04,경기도 평택시청,031-8024-4247,2022-06-01,3910000,경기도 평택시
41220-00299,수변공원 5호(고덕국제화지구 좌교리),수변공원,,경기도 평택시 고덕면 좌교리 94답,37.033702,127.036699,8662,,,,,,2013-01-04,경기도 평택시청,031-8024-4247,2022-06-01,3910000,경기도 평택시
41220-00300,수변공원 6호(고덕국제화지구 여염리),수변공원,,경기도 평택시 고덕면 여염리 377답,37.035169,127.042966,7599,,,,,,2013-01-04,경기도 평택시청,031-8024-4247,2022-06-01,3910000,경기도 평택시
41220-00301,수변공원 7호(고덕국제화지구 여염리),수변공원,,경기도 평택시 고덕면 여염리 362-1답,37.036833,127.041657,35231,,,,,,2013-01-04,경기도 평택시청,031-8024-4247,2022-06-01,3910000,경기도 평택시
41220-00302,수변공원 8호(고덕국제화지구 율포리),수변공원,,경기도 평택시 고덕면 율포리 98답,37.041322,127.042695,11150,,,,,,2013-01-04,경기도 평택시청,031-8024-4247,2022-06-01,3910000,경기도 평택시
41220-00303,수변공원 9호(고덕국제화지구 여염리),수변공원,,경기도 평택시 고덕면 여염리 315답,37.040832,127.045428,11782,,,,,,2013-01-04,경기도 평택시청,031-8024-4247,2022-06-01,3910000,경기도 평택시
41220-00304,수변공원(브레인시티),수변공원,경기도 평택시 삼남로 236 (도일동),경기도 평택시 도일동 983-7,37.04838129,127.0988531,61615,,,,,,2010-03-15,경기도 평택시청,031-8024-4247,2022-06-01,3910000,경기도 평택시
41220-00305,수촌1 수변공원(수촌지구),수변공원,,경기도 평택시 칠원동 289-25,37.020343,127.113678,21187,,,,,,2009-12-16,경기도 평택시청,031-8024-4247,2022-06-01,3910000,경기도 평택시
41220-00306,제1호 수변공원(가재지구 128호),수변공원,,경기도 평택시 가재동 479-1,37.042328,127.077653,1100,,,,,,2011-11-25,경기도 평택시청,031-8024-4247,2022-06-01,3910000,경기도 평택시
41220-00307,제2호 수변공원(가재지구 129호),수변공원,,경기도 평택시 가재동 479-1,37.042328,127.077653,6560,,,,,,2011-11-25,경기도 평택시청,031-8024-4247,2022-06-01,3910000,경기도 평택시
41480-00074,선유3 어린이공원,어린이공원,,경기도 파주시 문산읍 당동리 936번지,37.868024,126.786909,7284,,조합놀이대,,,,2012-11-23,경기도 파주시 공원관리과,031-940-5381,2022-04-29,4060000,경기도 파주시
41480-00075,선유산업단지1호 근린공원,근린공원,,경기도 파주시 문산읍 당동리 943,37.862704,126.7717539,21818,,,,,,2010-07-28,경기도 파주시 공원관리과,031-940-5381,2022-04-29,4060000,경기도 파주시
41480-00076,선유산업단지2호 근린공원,근린공원,,경기도 파주시 문산읍 선유리 1396,37.86490558,126.7991824,16328,축구장+족구장,,화장실+주차장,,,2010-07-28,경기도 파주시 공원관리과,031-940-5381,2022-04-29,4060000,경기도 파주시
46710-00049,공원-49,소공원,,전라남도 담양군 수북면 황금리 634-1,35.26449474,126.925887,1120,,,,,,2007-11-26,전라남도 담양군청,061-380-2574,2022-02-07,4850000,전라남도 담양군
46710-00050,공원-50,소공원,,전라남도 담양군 수북면 황금리 77,35.26998252,126.922384,598,,,,,,2007-11-26,전라남도 담양군청,061-380-2574,2022-02-07,4850000,전라남도 담양군
46710-00051,공원-51,소공원,,전라남도 담양군 수북면 정중리 219-24,35.27342634,126.9264963,1266,,,,,,2007-11-26,전라남도 담양군청,061-380-2574,2022-02-07,4850000,전라남도 담양군
46710-00052,공원-52,소공원,,전라남도 담양군 창평면 유곡리 972,35.24563249,126.9870517,2144,,,,,,2007-11-26,전라남도 담양군청,061-380-2574,2022-02-07,4850000,전라남도 담양군
46710-00053,공원-53,소공원,,전라남도 담양군 창평면 일산리 142,35.23581036,126.9938281,1361,,,,,,2007-11-26,전라남도 담양군청,061-380-2574,2022-02-07,4850000,전라남도 담양군
46710-00054,공원-54,소공원,,전라남도 담양군 창평면 일산리 211-3,35.23674429,126.9889611,1740,,,,,,2007-11-26,전라남도 담양군청,061-380-2574,2022-02-07,4850000,전라남도 담양군
42730-00014,횡성어린이공원15호,어린이공원,,강원도 횡성군 횡성읍 읍하리 490,37.496922,127.9860188,2713,,1.조합놀이대,1.파고라 2.화장실 3.벤치(10),,,,강원도 횡성군청 도시행정과,033-340-2472,2021-12-22,4260000,강원도 횡성군
42730-00013,횡성어린이공원14호,어린이공원,강원도 횡성군 횡성읍 입석로14번길 26-4,강원도 횡성군 횡성읍 입석리 172-4,37.4784564,127.9826341,1580,,,,,,,강원도 횡성군청 도시행정과,033-340-2472,2021-12-22,4260000,강원도 횡성군
42730-00012,횡성어린이공원12호,어린이공원,,강원도 횡성군 횡성읍 읍상리 668,37.486387,127.9864875,2943,,,,,,,강원도 횡성군청 도시행정과,033-340-2472,2021-12-22,4260000,강원도 횡성군
42730-00011,횡성어린이공원11호,어린이공원,,강원도 횡성군 횡성읍 읍하리 570,37.48795412,127.983077,2712,1.철봉 2.그네 3.시소 4.양회전운동머신 5.마라톤운동머신 6.노젖기운동머신 7.양다리운동머신 8.다리운동머신 9.옆회전운동머신,1.조합놀이대,1.파고라(3) 2.화장실 3.벤치(13),,,,강원도 횡성군청 도시행정과,033-340-2472,2021-12-22,4260000,강원도 횡성군
42730-00010,횡성어린이공원8호,어린이공원,,강원도 횡성군 횡성읍 읍상리 545,37.48811107,127.9866832,4152,,1.조합놀이대,1.정각 2.화장실,,1.생태연못 2.바닥분수,,강원도 횡성군청 도시행정과,033-340-2472,2021-12-22,4260000,강원도 횡성군
42730-00009,횡성어린이공원7호,어린이공원,강원도 횡성군 횡성읍 한우로242번길 6,강원도 횡성군 횡성읍 읍하리 351-8,37.4922077,127.9820784,1620,,,,,,,강원도 횡성군청 도시행정과,033-340-2472,2021-12-22,4260000,강원도 횡성군
42730-00008,횡성어린이공원5호,어린이공원,강원도 횡성군 횡성읍 북천서로 10,강원도 횡성군 횡성읍 북천리 115-191,37.49271911,127.9903796,1753,1.앉아서팔올리기머신 2.역기내리기 머신 3.마라톤 머신,1.조합놀이대,1.화장실 2.파고라 3.벤치(2),,,,강원도 횡성군청 도시행정과,033-340-2472,2021-12-22,4260000,강원도 횡성군
42730-00007,횡성어린이공원3호,어린이공원,강원도 횡성군 횡성읍 성북로 10,강원도 횡성군 횡성읍 읍상리 596,37.4902337,127.991871,1501,1.철봉 2.체스트업머신 3.트위스트머신 4.평행봉,1.조합놀이대,1.파고라,,,,강원도 횡성군청 도시행정과,033-340-2472,2021-12-22,4260000,강원도 횡성군
42730-00006,둔내근린공원8호,근린공원,강원도 횡성군 둔내면 둔방로 14번길 69-3,강원도 횡성군 둔내면 둔방내리 198-2,37.5156806,128.2099556,13880,,,,,,,강원도 횡성군청 도시행정과,033-340-2472,2021-12-22,4260000,강원도 횡성군
42730-00005,우천근린공원6호,근린공원,,강원도 횡성군 우천면 우항리 393-5,37.447921,128.0756133,14950,,,1.주차장 2.화장실,,1.네덜란드참전비,,강원도 횡성군청 도시행정과,033-340-2472,2021-12-22,4260000,강원도 횡성군
42730-00004,우천근린공원5호,근린공원,강원도 횡성군 우천면 수남로 302,강원도 횡성군 우천면 양적리 산24,37.460232,128.0595521,10630,,,,,,,강원도 횡성군청 도시행정과,033-340-2472,2021-12-22,4260000,강원도 횡성군
42730-00003,우천근린공원4호,근린공원,강원도 횡성군 우천면 수남로 299,강원도 횡성군 우천면 양적리 산21,37.460605,128.0587845,41000,,,,,,,강원도 횡성군청 도시행정과,033-340-2472,2021-12-22,4260000,강원도 횡성군
42730-00002,횡성근린공원3호,근린공원,강원도 횡성군 횡성읍 가담1길 21-3,강원도 횡성군 횡성읍 가담리 산3,37.47914988,127.9774419,25032,,,,,,,강원도 횡성군청 도시행정과,033-340-2472,2021-12-22,4260000,강원도 횡성군
42730-00001,횡성근린공원2호,근린공원,,강원도 횡성군 횡성읍 읍하리 40,37.49309178,127.9848198,56941,1.철봉 2.역기 3.지압머신 4.하늘걷기머신 5.앉아서팔올리기머신 6.역기내리기 머신 7. 옆회전운동머신 8.마라톤머신 9.양회전머신 10.체스트업머신 11.원그리기머신 12.말타기머신 13.다리밀기머신 14.트위스트머신,1.배드민턴 코트,1.정각 2.파고라(4) 3.화장실 4.벤치(13),1. 야외공연장,1.사무실 2.종각 3.생태연못(2),,강원도 횡성군청 도시행정과,033-340-2472,2021-12-22,4260000,강원도 횡성군
29155-00047,임암,어린이공원,,광주광역시 남구 임암동 880,35.10135039,126.8732838,1529,,,,,,2008-12-30,광주광역시 남구청,062-607-3812,2022-09-14,6290000,광주광역시
29155-00048,빛고을농촌테마,도시농업공원,,광주광역시 남구 양과동 1237-7,35.084787,126.867948,49805.9,,,,,,2016-03-15,광주광역시 남구청,062-607-3812,2022-09-14,6290000,광주광역시
29170-00001,우치,근린공원,,광주광역시 북구 생용동 658,35.22431388,126.8942421,968868,,,,,,1987-09-25,광주광역시 우치공원관리사무소,062-613-5865,2022-09-14,6290000,광주광역시
29170-00002,망월,묘지공원,,광주광역시 북구 수곡동 산30-4,35.23498253,126.9330441,605000,,,,,,1971-06-25,광주광역시 도시공사,062-266-8170,2022-09-14,6290000,광주광역시
29170-00003,교통,근린공원,,광주광역시 북구 오룡동 1113,35.22054602,126.8587669,62168.6,,,,,,1991-12-12,광주광역시 도시공사,062-972-0054,2022-09-14,6290000,광주광역시
29170-00004,국립5·18민주묘지,묘지공원,,광주광역시 북구 운정동 산34,35.23520798,126.9420302,167770,,,,,,1995-01-05,518국립묘지관리사무소,062-268-5185,2022-09-14,6290000,광주광역시
29170-00005,무등산생태문화,문화공원,,광주광역시 북구 충효동 805,35.18234756,126.995904,44010,,,,,,2016-08-15,광주광역시 북구청,062-410-6437,2022-09-14,6290000,광주광역시
29170-00006,제2시립(영락),묘지공원,,광주광역시 북구 효령동 96,35.2332222,126.9206273,1032420,,,,,,1998-10-12,광주광역시도시공사,062-572-1701,2022-09-14,6290000,광주광역시
29170-00007,문화,근린공원,,광주광역시 북구 문흥동 1009-1,35.18491724,126.9166864,87710.3,,,,,,1990-12-31,광주광역시 북구청,062-410-6437,2022-09-14,6290000,광주광역시
29170-00008,두암제1,근린공원,,광주광역시 북구 두암동 969-4,35.16510359,126.9376496,13383.5,,,,,,1990-12-12,광주광역시 북구청,062-410-6437,2022-09-14,6290000,광주광역시
29170-00009,일곡제1,근린공원,,광주광역시 북구 일곡동 850-1,35.20951352,126.8946493,34840.3,,,,,,1993-12-06,광주광역시 북구청,062-410-6437,2022-09-14,6290000,광주광역시
47190-00114,구평공원,근린공원,,경상북도 구미시 구평동 474-3,36.09080539,128.4389513,14749,,,,,,,,,2022-06-09,5080000,경상북도 구미시
47190-00115,구진벌공원,어린이공원,,경상북도 구미시 구평동 443-1,36.09498529,128.4353371,2066.4,,,,,,,,,2022-06-09,5080000,경상북도 구미시
47190-00116,다솜공원,어린이공원,,경상북도 구미시 구평동 464-2,36.091244,128.4411186,2222.6,,,,,,,,,2022-06-09,5080000,경상북도 구미시
47190-00117,참빛공원,어린이공원,,경상북도 구미시 구평동 431-1,36.094507,128.438114,4199.6,,,,,,,,,2022-06-09,5080000,경상북도 구미시
47190-00118,별빛공원,어린이공원,,경상북도 구미시 구평동 452,36.092834,128.4343054,7435.8,,,,,,,,,2022-06-09,5080000,경상북도 구미시
47190-00119,하늘공원,어린이공원,,경상북도 구미시 도량동 866,36.13448839,128.3259776,1543,,,,,,,,,2022-06-09,5080000,경상북도 구미시
47190-00120,까치공원,어린이공원,경상북도 구미시 상사서로23길 13-7,경상북도 구미시 사곡동 603-111,36.09926955,128.3564345,1686,,,,,,,,,2022-06-09,5080000,경상북도 구미시
47190-00121,디딜방아공원,어린이공원,,경상북도 구미시 구평동 1007,36.091827,128.445262,1500,,,,,,,,,2022-06-09,5080000,경상북도 구미시
47190-00122,두꺼비공원,어린이공원,,경상북도 구미시 구평동 1085,36.08961712,128.4462216,1510,,,,,,,,,2022-06-09,5080000,경상북도 구미시
47190-00123,늘푸른 공원,어린이공원,,경상북도 구미시 구평동 939,36.093792,128.4468937,1879,,,,,,,,,2022-06-09,5080000,경상북도 구미시
47190-00124,수변공원,수변공원,,경상북도 구미시 임은동 819,36.08481668,128.3671349,3365,,,,,,,,,2022-06-09,5080000,경상북도 구미시
47190-00125,나래공원,어린이공원,,경상북도 구미시 옥계동 884,36.139537,128.419523,1609.1,,,,,,,,,2022-06-09,5080000,경상북도 구미시
47190-00126,교우공원,어린이공원,,경상북도 구미시 선산읍 교리 1344,36.24580179,128.3048959,2034.9,,,,,,,,,2022-06-09,5080000,경상북도 구미시
41220-00266,부락산 문화공원(동부 130호),문화공원,,경기도 평택시 지산동 519-4,37.07140005,127.0752838,101095,U형 네트브릿지+경사 사다리+등허리지압기+로그터널+마법다리+버마래더+버켓 브릿지+버티칼 네트+수평네트+스네이크 브릿지+스노우모바일+스윙플랫폼+스카이 버켓+스카이버마+스카이벌룬+스텝 브릿지+스틱타잔스윙+스파이더 웹+아일랜드+어깨근육풀기+온몸근육풀기+엑스크로스+옆파도타기+옆파도타기+하늘걷기+온몸근육풀기+온몸근육풀기+마라톤운동+온몸허리돌리기+윗몸일으키기+인디아나 브릿지+자유철봉+정글로프+지압보도+체스 브릿지+콤플렉스 래더+평행봉+플라이 짚+하늘걷기+,,음수전+자전거거치대+화장실,,기념비+자연석쌓기+측량기준점+트랜치,2013-04-15,경기도 평택시청,031-8024-4247,2022-06-01,3910000,경기도 평택시
41220-00267,고덕문화마을1 소공원,소공원,,경기도 평택시 고덕면 해창리 1141-1,37.040265,127.014809,1230.4,농구대+온몸근육풀기+온몸허리돌리기+철봉+하늘걷기,그네+그네보호대+모래포장+조합놀이대,주차장,,공사조형기념비+배수로,2000-06-07,경기도 평택시청,031-8024-4247,2022-06-01,3910000,경기도 평택시
41220-00268,금암2리 소공원,소공원,,경기도 평택시 서탄면 금암리 469-8,37.110578,127.036043,1009,발바닥지압걷기+어깨근육풀기+옆파도타기+온몸노젓기+온몸역기내리기+온몸허리돌리기,,화장실,,PVC이중벽관+벤치플륨관+집수정,2012-06-14,경기도 평택시청,031-8024-4247,2022-06-01,3910000,경기도 평택시
41220-00269,동부19호 소공원,소공원,,경기도 평택시 도일동 525,37.053,127.106322,303,,,,,,1996-12-17,경기도 평택시청,031-8024-4247,2022-06-01,3910000,경기도 평택시
41220-00270,상서재1호 소공원(동삭2지구),소공원,,경기도 평택시 칠원동 334-4,37.019276,127.106952,920,,,,,,2013-05-08,경기도 평택시청,031-8024-4247,2022-06-01,3910000,경기도 평택시
41220-00271,상서재2호 소공원(동삭2지구),소공원,,경기도 평택시 칠원동 337-1,37.019323,127.106823,1356,,,,,,2013-05-08,경기도 평택시청,031-8024-4247,2022-06-01,3910000,경기도 평택시
41220-00272,서정동 소공원(서정연립재건축),소공원,경기도 평택시 서정북로 100 (서정동 주공외인연립),경기도 평택시 서정동 780,37.06973887,127.0619136,4434.8,,,,,,2012-04-13,경기도 평택시청,031-8024-4247,2022-06-01,3910000,경기도 평택시
41220-00273,성두 소공원(고덕일반산업단지 소공원1),소공원,,경기도 평택시 고덕면 여염리 1665공,37.034796,127.043204,2280.1,생활체육시설 B+생활체육시설 C+생활체육시설 D,,자전거보관대,,벤치플륨관+스틸그레이팅+시설물표찰+집수정A,2010-11-16,경기도 평택시청,031-8024-4247,2022-06-01,3910000,경기도 평택시
41220-00274,소공원 1호 (송원 현대재건축),소공원,경기도 평택시 탄현로368번길 48 (독곡동 현대연립),경기도 평택시 독곡동 산69-3,37.084785,127.0608121,990,,,,,,2010-10-21,경기도 평택시청,031-8024-4247,2022-06-01,3910000,경기도 평택시
41220-00275,수촌1 소공원(수촌지구),소공원,,경기도 평택시 칠원동 440-3,37.021725,127.1053378,1704,,,,,,2009-12-16,경기도 평택시청,031-8024-4247,2022-06-01,3910000,경기도 평택시
41220-00276,신장지구 소공원,소공원,,경기도 평택시 신장동 170-3,37.085809,127.054661,2925,,,,,,2015-10-08,경기도 평택시청,031-8024-4247,2022-06-01,3910000,경기도 평택시
41220-00277,용우물 소공원(고덕일반산업단지 소공원3),소공원,,경기도 평택시 고덕면 여염리 1652공,37.038943,127.050892,2099.3,생활체육시설 B+생활체육시설 C+생활체육시설 D,,자전거보관대,,벤치플륨관+스틸그레이팅+시설물표찰+집수정A,2010-11-16,경기도 평택시청,031-8024-4247,2022-06-01,3910000,경기도 평택시
41220-00278,임주 소공원(고덕일반산업단지 소공원2),소공원,,경기도 평택시 고덕면 여염리 1666공,37.037126,127.048316,2238.5,생활체육시설 A+생활체육시설 E+생활체육시설 F,,자전거보관대,,배수관+벤치플륨관+스틸그레이팅+시설물표찰+집수정A,2010-11-16,경기도 평택시청,031-8024-4247,2022-06-01,3910000,경기도 평택시
41220-00279,장등1리 소공원,소공원,,경기도 평택시 서탄면 장등리 466-8,37.074458,127.023535,1084,마라톤운동기+매달려온몸회전하기+발바닥지압걷기+온몸노젓기+온몸역기올리기,고무매트포장+그네+조합놀이대+흔들놀이,,,배수로+집수정,2012-06-14,경기도 평택시청,031-8024-4247,2022-06-01,3910000,경기도 평택시
41220-00280,장등2리 소공원,소공원,,경기도 평택시 서탄면 장등리 451-9,37.073978,127.025434,1000,등허리지압기+발바닥지압걷기+어깨근육풀기+온몸역기내리기+온몸허리돌리기+윗몸일으키기,고무매트포장+그네+그네보호대+조합놀이대,,,집수정,2012-06-14,경기도 평택시청,031-8024-4247,2022-06-01,3910000,경기도 평택시
41220-00281,제5호 소공원(진위역),소공원,,경기도 평택시 진위면 하북리 140-11,37.110518,127.0627119,1900,,,,,,2009-12-30,경기도 평택시청,031-8024-4247,2022-06-01,3910000,경기도 평택시
41220-00282,제6호 소공원(진위역),소공원,,경기도 평택시 진위면 하북리 170-1,37.11042849,127.062125,2257,,,,,,2009-12-30,경기도 평택시청,031-8024-4247,2022-06-01,3910000,경기도 평택시
41220-00283,진위3일반산단1호 소공원(진위3일반산업단지),소공원,,경기도 평택시 진위면 마산리 336,37.08922,127.094889,8731,,,,,,2015-10-15,경기도 평택시청,031-8024-4247,2022-06-01,3910000,경기도 평택시
41220-00284,진위3일반산단2호 소공원(진위3일반산업단지),소공원,,경기도 평택시 진위면 마산리 산52,37.08307309,127.098124,1500,,,,,,2015-10-15,경기도 평택시청,031-8024-4247,2022-06-01,3910000,경기도 평택시
41220-00285,칠원 소공원,소공원,,경기도 평택시 칠원동 58-1 58-3 50 49-6,37.032005,127.100642,3863,다리뻗치기+어깨근육풀기+옆파도타기+온몸허리돌리기+하늘걷기,,음수전,,공적비+기념비석+스탬프 찍는곳+연결관+자연석쌓기+준공기념비+칠원동주민송덕비+트랜치,1996-12-17,경기도 평택시청,031-8024-4247,2022-06-01,3910000,경기도 평택시
41220-00286,풍진 소공원(신설),소공원,,경기도 평택시 서정동 833,37.067101,127.055243,850,,,,,,1980-01-29,경기도 평택시청,031-8024-4247,2022-06-01,3910000,경기도 평택시
41220-00287,상서재 2호 수변공원(동삭2지구),수변공원,,경기도 평택시 칠원동 451-2,37.027392,127.115756,9484,,,,,,2014-03-17,경기도 평택시청,031-8024-4247,2022-06-01,3910000,경기도 평택시
41220-00288,소풍정원,수변공원,,경기도 평택시 고덕면 궁리 424-25,37.011844,127.020575,112245,,그네+그네보호대+모래포장+반원터널분수+우산워터드롭+워터샤워+조합놀이대+탄성고무칩포장,샤워장+세척장+음수전+화장실,,PE이중벽관+맹암거+미로원+빗물받이+소풍정원액자 포토존+수질정화기+엣지+자연석쌓기+집수정,2016-02-29,경기도 평택시청,031-8024-4247,2022-06-01,3910000,경기도 평택시
30110-00059,꽃그늘공원,소공원,,대전광역시 동구 구도동 379,36.27186142,127.468597,1228.6,,,,,,2009-01-09,대전광역시 동구청,042-251-4755,2022-06-10,3640000,대전광역시 동구
29140-00040,농성공단,어린이공원,,광주광역시 서구 농성동 417-8,35.15982261,126.8848429,2084,1,0,9,0,0,1992-08-06,광주광역시 서구청,062-360-7512,2022-11-28,3600000,광주광역시 서구
29140-00041,풍암,어린이공원,광주광역시 서구 송풍로 13번길 27,광주광역시 서구 풍암동 30-2,35.13052374,126.8839083,1708,6,2,14,0,3,1992-08-06,광주광역시 서구청,062-360-7512,2022-11-28,3600000,광주광역시 서구
29140-00042,느티나무,어린이공원,,광주광역시 서구 치평동 1192,35.159801,126.846567,1519,6,2,9,0,13,1994-11-12,광주광역시 서구청,062-360-7512,2022-11-28,3600000,광주광역시 서구
29140-00043,무지개,어린이공원,,광주광역시 서구 쌍촌동 1302-2,35.15319791,126.8598394,2716,0,1,9,0,2,1994-11-12,광주광역시 서구청,062-360-7512,2022-11-28,3600000,광주광역시 서구
29140-00044,오월,어린이공원,,광주광역시 서구 쌍촌동 1288-2,35.15587992,126.862207,2057.1,0,2,15,0,5,1994-11-12,광주광역시 서구청,062-360-7512,2022-11-28,3600000,광주광역시 서구
29140-00045,운천,어린이공원,,광주광역시 서구 치평동 1168-3,35.15329763,126.8465895,2794.1,5,4,7,0,1,1994-11-12,광주광역시 서구청,062-360-7512,2022-11-28,3600000,광주광역시 서구
29140-00046,장수,어린이공원,,광주광역시 서구 치평동 1166-10,35.15714776,126.8433994,8084.1,11,5,8,0,1,1994-11-12,광주광역시 서구청,062-360-7512,2022-11-28,3600000,광주광역시 서구
29140-00047,치평,어린이공원,광주광역시 서구 상무민주로6번길 27 (쌍촌동),광주광역시 서구 치평동 1171-9,35.15319791,126.8598074,4416.3,11,7,10,0,1,1994-11-12,광주광역시 서구청,062-360-7512,2022-11-28,3600000,광주광역시 서구
29140-00048,해오리,어린이공원,,광주광역시 서구 치평동 1174-1,35.14655021,126.8439587,3551.5,7,2,5,0,12,1994-11-12,광주광역시 서구청,062-360-7512,2022-11-28,3600000,광주광역시 서구
29140-00049,개나리,어린이공원,,광주광역시 서구 풍암동 1056,35.120501,126.8776872,3837.4,4,2,3,0,11,1995-06-30,광주광역시 서구청,062-360-7512,2022-11-28,3600000,광주광역시 서구
29140-00050,금당,어린이공원,,광주광역시 서구 풍암동 1165,35.12780503,126.883968,3277.8,9,2,12,0,13,1995-06-30,광주광역시 서구청,062-360-7512,2022-11-28,3600000,광주광역시 서구
29140-00051,금호,어린이공원,,광주광역시 서구 금호동 811,35.12925074,126.8571496,3608.9,1,9,17,1,16,1995-06-30,광주광역시 서구청,062-360-7512,2022-11-28,3600000,광주광역시 서구
29140-00052,달맞이,어린이공원,,광주광역시 서구 금호동 833,35.12383597,126.8591944,1631.2,4,1,14,0,7,1995-06-30,광주광역시 서구청,062-360-7512,2022-11-28,3600000,광주광역시 서구
29140-00053,당산,어린이공원,,광주광역시 서구 풍암동 1129,35.12401153,126.8815859,4728.1,5,5,14,0,3,1995-06-30,광주광역시 서구청,062-360-7512,2022-11-28,3600000,광주광역시 서구
29140-00055,새롬,어린이공원,,광주광역시 서구 풍암동 1008,35.12270918,126.868453,3090.1,6,4,4,0,4,1995-06-30,광주광역시 서구청,062-360-7512,2022-11-28,3600000,광주광역시 서구
29140-00056,운리,어린이공원,광주광역시 서구 풍암운리로 7번길 5 (풍암동),광주광역시 서구 풍암동 947,35.12281877,126.8647779,8548.7,2,7,15,1,26,1995-06-30,광주광역시 서구청,062-360-7512,2022-11-28,3600000,광주광역시 서구
29140-00057,희망,어린이공원,,광주광역시 서구 풍암동 1052,35.12350596,126.876195,2207,6,3,13,0,1,1995-06-30,광주광역시 서구청,062-360-7512,2022-11-28,3600000,광주광역시 서구
29140-00058,금부,어린이공원,,광주광역시 서구 금호동 749,35.13463818,126.857329,1464,0,4,15,0,4,1996-01-20,광주광역시 서구청,062-360-7512,2022-11-28,3600000,광주광역시 서구
29140-00059,풍금,어린이공원,,광주광역시 서구 금호동 771-1,35.13311149,126.8609287,5414,6,3,10,0,0,1996-01-20,광주광역시 서구청,062-360-7512,2022-11-28,3600000,광주광역시 서구
29140-00060,상일,어린이공원,광주광역시 서구 풍암운리로7번길 5 (풍암동),광주광역시 서구 쌍촌동 1344-6,35.12289012,126.8647779,2549.6,6,4,4,0,1,1995-05-23,광주광역시 서구청,062-360-7512,2022-11-28,3600000,광주광역시 서구
29140-00061,서광,어린이공원,,광주광역시 서구 쌍촌동 1358,35.157198,126.8644969,3067.2,9,2,5,0,3,1995-05-23,광주광역시 서구청,062-360-7512,2022-11-28,3600000,광주광역시 서구
29140-00062,유촌,어린이공원,광주광역시 서구 계수로59번길 4-9 (쌍촌동),광주광역시 서구 쌍촌동 1326-1,35.16086468,126.8577838,3733.4,5,1,13,2,14,1995-05-23,광주광역시 서구청,062-360-7512,2022-11-28,3600000,광주광역시 서구
29140-00063,극락,어린이공원,,광주광역시 서구 유촌동 857,35.165255,126.8584369,1517.4,0,2,22,0,7,1996-06-29,광주광역시 서구청,062-360-7512,2022-11-28,3600000,광주광역시 서구
29140-00064,유덕,어린이공원,,광주광역시 서구 유촌동 873,35.164624,126.8619757,1643.3,1,2,6,1,0,1996-06-29,광주광역시 서구청,062-360-7512,2022-11-28,3600000,광주광역시 서구
29140-00065,새누리,어린이공원,,광주광역시 서구 풍암동 903,35.121169,126.863672,2187.1,4,7,6,0,6,1996-12-30,광주광역시 서구청,062-360-7512,2022-11-28,3600000,광주광역시 서구
29140-00066,햇살,어린이공원,광주광역시 서구 계수로59번길 4-9 (쌍촌동),광주광역시 서구 금호동 862,35.16086468,126.8577838,2322,7,4,10,0,16,1996-12-30,광주광역시 서구청,062-360-7512,2022-11-28,3600000,광주광역시 서구
29140-00067,화개,어린이공원,,광주광역시 서구 금호동 890,35.12390516,126.856268,1877.1,5,1,13,0,8,1996-12-30,광주광역시 서구청,062-360-7512,2022-11-28,3600000,광주광역시 서구
41465-00019,제17호 근린공원(신봉공원),근린공원,,경기도 용인시 수지구 성복동 735,37.3184368,127.081607,58620,,,,,,2000-05-31,,,2022-11-23,4050000,경기도 용인시
29140-00012,상록,근린공원,,광주광역시 서구 농성동311-1,35.15564453,126.8886003,18128,1,0,69,2,7,2003-11-15,광주광역시청,062-613-4233,2022-11-28,3600000,광주광역시 서구
29140-00013,평화,근린공원,,광주광역시 서구 치평동 1204,35.15654724,126.8516163,24178,8,0,56,1,97,2010-03-15,광주광역시청,062-613-4233,2022-11-28,3600000,광주광역시 서구
29140-00014,죽림,근린공원,,광주광역시 서구 동천동 508,35.1682265,126.8573846,10137.5,4,0,35,0,74,2001-11-24,광주광역시 서구청,062-360-7512,2022-11-28,3600000,광주광역시 서구
29140-00015,유적,근린공원,광주광역시 서구 상무대로 1165 (농성동),광주광역시 서구 동천동 660,35.15498216,126.8884415,100268,2,8,31,0,50,2001-11-24,광주광역시 서구청,062-360-7512,2022-11-28,3600000,광주광역시 서구
29140-00016,천변,수변공원,광주광역시 서구 상무대로1171번길 15 (농성동),광주광역시 서구 양동 346,35.15564453,126.8886003,424420,1,0,4,0,13,1975-02-18,광주광역시 서구청,062-360-7512,2022-11-28,3600000,광주광역시 서구
29140-00017,상무,수변공원,광주광역시 서구 내방로 102 (치평동),광주광역시 서구 쌍촌동 869-9,35.15654724,126.8516022,74020,0,0,1,4,1,1967-02-20,광주광역시 서구청,062-360-7512,2022-11-28,3600000,광주광역시 서구
29140-00018,전평제,수변공원,,광주광역시 서구 매월동 519-1,35.11557813,126.8484198,44000,1,1,43,1,19,1906-07-14,광주광역시 서구청,062-360-7512,2022-11-28,3600000,광주광역시 서구
29140-00019,농성,어린이공원,,광주광역시 서구 농성동 669-3,35.148223,126.887055,2100,7,2,12,0,5,1970-02-05,광주광역시 서구청,062-360-7512,2022-11-28,3600000,광주광역시 서구
29140-00020,내방,어린이공원,,광주광역시 서구 내방동 837,35.15314897,126.8724926,30200,1,3,22,0,0,1970-02-05,광주광역시 서구청,062-360-7512,2022-11-28,3600000,광주광역시 서구
29140-00021,쌍촌,어린이공원,,광주광역시 서구 쌍촌동 967,35.15154893,126.8601455,1500,2,5,2,0,0,1970-02-05,광주광역시 서구청,062-360-7512,2022-11-28,3600000,광주광역시 서구
29140-00022,꿈마당,어린이공원,,광주광역시 서구 화정동 892,35.14086813,126.8769884,1500,6,3,8,0,1,1983-12-30,광주광역시 서구청,062-360-7512,2022-11-28,3600000,광주광역시 서구
29140-00023,염주,어린이공원,광주광역시 서구 화정로276번길 5 (농성동),광주광역시 서구 화정동 895,35.1482234,126.8870553,1500,5,0,12,0,4,1983-12-30,광주광역시 서구청,062-360-7512,2022-11-28,3600000,광주광역시 서구
29140-00024,콩콩,어린이공원,광주광역시 서구 상무대로1005번길 12-5 (내방동),광주광역시 서구 화정동 891,35.15316037,126.8724926,1500,3,4,4,0,7,1983-12-30,광주광역시 서구청,062-360-7512,2022-11-28,3600000,광주광역시 서구
29140-00025,효행,어린이공원,광주광역시 서구 상무민주로6번길 17 (쌍촌동),광주광역시 서구 화정동 802,35.15154575,126.8601455,1500,2,2,8,0,1,1983-12-30,광주광역시 서구청,062-360-7512,2022-11-28,3600000,광주광역시 서구
29140-00026,화방,어린이공원,,광주광역시 서구 화정동 894,35.140983,126.874497,1500,8,0,2,0,1,1983-12-30,광주광역시 서구청,062-360-7512,2022-11-28,3600000,광주광역시 서구
29140-00027,주동,어린이공원,,광주광역시 서구 화정동 1081,35.14088192,126.884702,1610,5,1,8,0,0,1986-06-04,광주광역시 서구청,062-360-7512,2022-11-28,3600000,광주광역시 서구
29140-00028,쌍학,어린이공원,광주광역시 서구 월드컵4강로68번길 17 (화정동),광주광역시 서구 쌍촌동 1205,35.14337133,126.8764191,8920,19,6,43,1,1,1987-12-21,광주광역시 서구청,062-360-7512,2022-11-28,3600000,광주광역시 서구
29140-00029,효광,어린이공원,,광주광역시 서구 쌍촌동 1213,35.14600926,126.8631693,2317.9,5,3,11,0,9,1987-12-21,광주광역시 서구청,062-360-7512,2022-11-28,3600000,광주광역시 서구
29140-00030,맛고을,어린이공원,,광주광역시 서구 화정동 914-1,35.14286812,126.8723439,2912,2,6,17,0,0,1990-09-12,광주광역시 서구청,062-360-7512,2022-11-28,3600000,광주광역시 서구
29140-00031,학생독립,어린이공원,,광주광역시 서구 화정동 903-1,35.143864,126.867287,1500,0,5,11,0,0,1990-12-06,광주광역시 서구청,062-360-7512,2022-11-28,3600000,광주광역시 서구
29140-00032,새싹,어린이공원,광주광역시 서구 화정로85번길 26 (쌍촌동),광주광역시 서구 쌍촌동 1233-11,35.14717048,126.8666378,1650,1,4,14,0,0,1990-12-06,광주광역시 서구청,062-360-7512,2022-11-28,3600000,광주광역시 서구
29140-00033,우정,어린이공원,,광주광역시 서구 화정동 929-2,35.13748182,126.8717175,3317,3,6,20,0,0,1990-09-19,광주광역시 서구청,062-360-7512,2022-11-28,3600000,광주광역시 서구
29140-00034,믿음,어린이공원,,광주광역시 서구 쌍촌동 1236-1,35.14506561,126.860862,1500,2,1,10,0,0,1990-09-19,광주광역시 서구청,062-360-7512,2022-11-28,3600000,광주광역시 서구
29140-00035,반달,어린이공원,,광주광역시 서구 금호동 741-2,35.136461,126.857432,2654.2,4,6,8,0,0,1990-09-19,광주광역시 서구청,062-360-7512,2022-11-28,3600000,광주광역시 서구
29140-00036,사랑,어린이공원,,광주광역시 서구 쌍촌동 1258-3,35.14120992,126.8605182,1815.9,3,2,7,0,0,1990-09-19,광주광역시 서구청,062-360-7512,2022-11-28,3600000,광주광역시 서구
29140-00037,소망,어린이공원,,광주광역시 서구 쌍촌동 1246-2,35.14344799,126.8587973,1510.5,3,3,7,0,0,1991-09-19,광주광역시 서구청,062-360-7512,2022-11-28,3600000,광주광역시 서구
29140-00038,푸름,어린이공원,,광주광역시 서구 금호동 743-1,35.13720954,126.8610334,3745.4,1,6,7,0,0,1991-09-19,광주광역시 서구청,062-360-7512,2022-11-28,3600000,광주광역시 서구
29140-00039,해님,어린이공원,광주광역시 서구 금호운천길 10 (금호동),광주광역시 서구 금호동 721-1,35.13648604,126.857401,1638,3,5,6,0,0,1991-09-19,광주광역시 서구청,062-360-7512,2022-11-28,3600000,광주광역시 서구
41465-00018,신리어린이공원,어린이공원,,경기도 용인시 수지구 신봉동 881,37.32278053,127.081501,1500,,,,,,2000-05-31,,,2022-11-23,4050000,경기도 용인시
11590-00045,나비,소공원,,서울특별시 동작구 상도동 535-3,37.50334639,126.943593,564.1,,,,,,2012-01-12,서울특별시 동작구청,,2022-04-25,3190000,서울특별시 동작구
11590-00046,꽃담길,소공원,,서울특별시 동작구 상도동 25-8,37.505644,126.942102,206,,,,,,2012-05-02,서울특별시 동작구청,,2022-04-25,3190000,서울특별시 동작구
11590-00047,흑석,소공원,,서울특별시 동작구 흑석동 186-135,37.50916104,126.957863,442,,,,,,2012-05-17,서울특별시 동작구청,,2022-04-25,3190000,서울특별시 동작구
11590-00048,칸나,소공원,서울특별시 동작구 시흥대로596,서울특별시 동작구 신대방동 698,37.48562691,126.9043083,241,,,,,,2012-09-06,서울특별시 동작구청,,2022-04-25,3190000,서울특별시 동작구
11590-00049,꿈나래,어린이공원,,서울특별시 동작구 상도동 36-1,37.5052677,126.9481801,1720.2,,,,,,2007-09-27,서울특별시 동작구청,,2022-04-25,3190000,서울특별시 동작구
11590-00050,새빛,소공원,,서울특별시 동작구 사당동 164-1,37.48733571,126.9744112,1680,,,,,,2009-02-05,서울특별시 동작구청,,2022-04-25,3190000,서울특별시 동작구
11590-00051,까막골,소공원,,서울특별시 동작구 흑석동 231-31,37.5045058,126.9605347,1420.1,,,,,,2008-09-11,서울특별시 동작구청,,2022-04-25,3190000,서울특별시 동작구
11590-00052,비둘기,어린이공원,,서울특별시 동작구 상도1동 558,37.505903,126.9518335,2114.7,,,,,,1963-04-26,서울특별시 동작구청,,2022-04-25,3190000,서울특별시 동작구
26350-00063,재송소공원,소공원,,부산광역시 해운대구 재송동 산51,35.1878414,129.1322709,8679,,,,,,2009-12-23,부산광역시 해운대구,,2022-11-23,3330000,부산광역시 해운대구
26350-00064,소공원(951),소공원,,부산광역시 해운대구 반송로513번길 66-16(석대동),35.2261652,129.1227427,662.6,,,,,,2010-05-26,부산광역시 해운대구,,2022-11-23,3330000,부산광역시 해운대구
26350-00065,해운대수목원,근린공원,,부산광역시 해운대구 석대동 24번지 일원,35.2297418,129.1256921,628275,,,,,,2011-02-09,부산광역시 해운대구,,2022-11-23,3330000,부산광역시 해운대구
26350-00066,아이파크공원,어린이공원,,부산광역시 해운대구 우동 1408-2,35.1577488,129.1434158,4893,,,,,,2011-02-16,부산광역시 해운대구,,2022-11-23,3330000,부산광역시 해운대구
26350-00067,소공원,소공원,,부산광역시 해운대구 우동 1407-12,35.15731827,129.1441783,2914.8,,,,,,2011-02-16,부산광역시 해운대구,,2022-11-23,3330000,부산광역시 해운대구
26350-00068,소공원,소공원,,부산광역시 해운대구 우동 1407-13,35.15589121,129.14594,2710.2,,,,,,2011-02-16,부산광역시 해운대구,,2022-11-23,3330000,부산광역시 해운대구
26350-00069,소공원,소공원,,부산광역시 해운대구 중동1로17번길 15-10(우동),35.1643689,129.1533554,393,,,,,,2011-08-24,부산광역시 해운대구,,2022-11-23,3330000,부산광역시 해운대구
26350-00070,반송근린공원,근린공원,,부산광역시 해운대구 반송동 844-2,35.22024108,129.1592756,89840,,,,,,2017-06-21,부산광역시 해운대구,,2022-11-23,3330000,부산광역시 해운대구
29140-00001,염주,근린공원,광주광역시 서구 염화로134번길 18 (화정동),광주광역시 서구 화정동 843,35.14159896,126.8792537,10400,3,1,6,0,1,1982-03-23,광주광역시 서구청,062-360-7512,2022-11-28,3600000,광주광역시 서구
29140-00002,5·18 기념,근린공원,광주광역시 서구 내방로 152 (쌍촌동),광주광역시 서구 쌍촌동 1268,35.15830536,126.8575559,20985.6,6,7,177,4,137,1994-11-12,광주광역시청,062-613-7905,2022-11-28,3600000,광주광역시 서구
29140-00003,시민,근린공원,광주광역시 서구 상무민주로 61 (쌍촌동),광주광역시 서구 치평동1162,35.15574851,126.8585843,170384.9,8,3,157,6,429,1994-11-12,광주광역시 서구청,062-360-7512,2022-11-28,3600000,광주광역시 서구
29140-00004,마재,근린공원,광주광역시 서구 상무자유로 73 (치평동),광주광역시 서구 금호동 789,35.15221868,126.8422202,18267.3,2,4,48,3,18,1995-06-30,광주광역시 서구청,062-360-7512,2022-11-28,3600000,광주광역시 서구
29140-00005,신암,근린공원,광주광역시 서구 상무공원로 101 (치평동),광주광역시 서구 풍암동 1126,35.1533934,126.8410957,11417.7,3,0,39,0,20,1995-06-30,광주광역시 서구청,062-360-7512,2022-11-28,3600000,광주광역시 서구
29140-00006,풍암,근린공원,광주광역시 서구 상무자유로 59 (치평동),광주광역시 서구 풍암동 1065,35.15221868,126.8422202,14344.9,0,0,9,0,0,1995-06-30,광주광역시 서구청,062-360-7512,2022-11-28,3600000,광주광역시 서구
29140-00007,상무2지구근린1,근린공원,,광주광역시 서구 유촌동 840-2,35.16205659,126.8541858,5756,0,0,25,0,7,1996-05-23,광주광역시 서구청,062-360-7512,2022-11-28,3600000,광주광역시 서구
29140-00008,상무2지구근린2,근린공원,광주광역시 서구 풍암2로 26 (풍암동),광주광역시 서구 쌍촌동 1313-1,35.12487292,126.8791753,8451.8,0,0,36,0,17,1996-05-23,광주광역시 서구청,062-360-7512,2022-11-28,3600000,광주광역시 서구
29140-00009,상무2지구근린3,근린공원,,광주광역시 서구 쌍촌동 1337-1,35.161629,126.861471,9997.5,1,0,18,0,11,1996-05-23,광주광역시 서구청,062-360-7512,2022-11-28,3600000,광주광역시 서구
29140-00010,상무2지구근린4,근린공원,,광주광역시 서구 쌍촌동 1339,35.16154016,126.8636304,1462,0,0,9,0,0,1996-05-23,광주광역시 서구청,062-360-7512,2022-11-28,3600000,광주광역시 서구
29140-00011,상무4지구근린1,근린공원,,광주광역시 서구 유촌동 869,35.16287824,126.8590196,25250.5,9,22,89,0,33,1996-06-29,광주광역시 서구청,062-360-7512,2022-11-28,3600000,광주광역시 서구
30230-00066,공원(석봉B),소공원,,대전광역시 대덕구 석봉동306-31,36.44852314,127.424711,468,,,,,,2015-04-17,대전광역시 대덕구청,042-608-5134,2022-05-31,3680000,대전광역시 대덕구
42810-00016,중앙공원(북면 제2공원),어린이공원,,강원도 인제군 북면 원통리 679-12,38.12358121,128.2070815,6250,운동기구,조합놀이대,"파고라, 의자",,,1985-07-29,강원도 인제군청,033-460-2126,2022-06-07,4330000,강원도 인제군
42810-00017,원통 제1공원,어린이공원,,강원도 인제군 북면 원통리 789-1,38.11842825,128.2014556,2100,운동기구,조합놀이대,,,,1985-07-29,강원도 인제군청,033-460-2126,2022-06-07,4330000,강원도 인제군
42810-00018,원통공원(농공단지),어린이공원,,강원도 인제군 북면 원통리 1707,38.11629797,128.2015633,1498,운동기구,조합놀이대,,,,1990-03-20,강원도 인제군청,033-460-2126,2022-06-07,4330000,강원도 인제군
30230-00001,중리,근린공원,대전광역시 대덕구 중리동로41번길28(중리동),대전광역시 대덕구 중리동388-17,36.36281267,127.4273244,10322,"농구골대,평행봉,철봉",조합놀이대,"평의자,평상,화장실",,,1984-08-20,대전광역시 대덕구청,042-608-5134,2022-05-31,3680000,대전광역시 대덕구
30230-00002,쌍청,근린공원,대전광역시 대덕구 쌍청당로 25 (중리동),대전광역시 대덕구 중리동101-1,36.3643312,127.4335613,17713,야외운동기구,조합놀이대,"평의자,평상,화장실",청소년수련관,,1984-08-20,대전광역시 대덕구청,042-608-5134,2022-05-31,3680000,대전광역시 대덕구
30230-00003,안산,근린공원,대전광역시 대덕구 계족로663번길25(법동),대전광역시 대덕구 법동284-2,36.3684302,127.4264192,13520,"평행봉,철봉",,"평의자,지압로",안산평생학습도서관,,1984-08-20,대전광역시 대덕구청,042-608-5134,2022-05-31,3680000,대전광역시 대덕구
30230-00004,문평,근린공원,,대전광역시 대덕구 문평동42-4,36.443003,127.397914,10001,"평행봉,철봉",,"등의자,평의,족구장",,,1990-07-04,대전광역시 대덕구청,042-608-5134,2022-05-31,3680000,대전광역시 대덕구
30230-00005,새일,근린공원,대전광역시 대덕구 문평동로18번길21(문평동),대전광역시 대덕구 문평동78-5,36.44638842,127.4035334,10115,"평행봉,철봉",,"등의자,평의자,화장실",,,1990-07-04,대전광역시 대덕구청,042-608-5134,2022-05-31,3680000,대전광역시 대덕구
30230-00006,응봉,근린공원,,대전광역시 대덕구 법동441-2,36.37130794,127.4330986,11531,"평행봉,야외운동기구",,"평상,등의자,평의자",,,1998-06-13,대전광역시 대덕구청,042-608-5134,2022-05-31,3680000,대전광역시 대덕구
30230-00007,소리,근린공원,대전광역시 대덕구 동춘당로126번길5 (송촌동),대전광역시 대덕구 송촌동443-1,36.36874868,127.4355581,17413,야외운동기구,,화장실,,,1993-12-08,대전광역시 대덕구청,042-608-5134,2022-05-31,3680000,대전광역시 대덕구
30230-00008,비래,근린공원,대전광역시 대덕구 계족산로81번길40 (송촌동),대전광역시 대덕구 비래동108,36.364832,127.4394943,13935,야외운동기구,,"평의자,등의자",,,1993-12-08,대전광역시 대덕구청,042-608-5134,2022-05-31,3680000,대전광역시 대덕구
30230-00009,오정,근린공원,,대전광역시 대덕구 오정동 산17-27,36.3622001,127.4160931,75404,야외운동기구,,"평상,등의자,평의자",,,1986-09-22,대전광역시 대덕구청,042-608-5134,2022-05-31,3680000,대전광역시 대덕구
30230-00010,평촌1,근린공원,,대전광역시 대덕구 신탄진동 산33-1,36.44299498,127.4366966,38836,,,,,,2009-06-26,대전광역시 대덕구청,042-608-5134,2022-05-31,3680000,대전광역시 대덕구
30230-00011,통매바위,어린이공원,대전광역시 대덕구 오정로76번길63 (오정동),대전광역시 대덕구 오정동274-1,36.35406619,127.4134063,1858,야외운동기구,"조합놀이대,그네","평의자,등의자",,,1972-11-06,대전광역시 대덕구청,042-608-5134,2022-05-31,3680000,대전광역시 대덕구
30230-00012,노촌,어린이공원,대전광역시 대덕구 오정로75번길 26 (오정동),대전광역시 대덕구 오정동311-6,36.35251378,127.4088638,1906,야외운동기구,조합놀이대,평의자,,,1972-11-06,대전광역시 대덕구청,042-608-5134,2022-05-31,3680000,대전광역시 대덕구
30230-00013,봉촌,어린이공원,대전광역시 대덕구 대전로1087번길22 (오정동),대전광역시 대덕구 오정동382-3,36.3514774,127.4141056,1653,"평행봉,철봉,농구대","조합놀이대,시소",평의자,,,1972-11-06,대전광역시 대덕구청,042-608-5134,2022-05-31,3680000,대전광역시 대덕구
30230-00014,새말,어린이공원,대전광역시 대덕구 대전로1044번길33 (오정동),대전광역시 대덕구 오정동453-1,36.34910544,127.4172345,1591,야외운동기구,"조합놀이대,철봉","평의자,등의자",,,1972-11-06,대전광역시 대덕구청,042-608-5134,2022-05-31,3680000,대전광역시 대덕구
30230-00015,오정,어린이공원,대전광역시 대덕구 한남로149번길28 (오정동),대전광역시 대덕구 오정동496-1,36.34643521,127.4154379,2980,야외운동기구,"흔들놀이,조합놀이대",,,,1971-04-09,대전광역시 대덕구청,042-608-5134,2022-05-31,3680000,대전광역시 대덕구
30230-00016,새터,어린이공원,대전광역시 대덕구 비래동로7번길 60 (비래동),대전광역시 대덕구 비래동122-3,36.35593054,127.4462713,1654,야외운동기구,"조합놀이대,시소",평의자,,,1971-08-04,대전광역시 대덕구청,042-608-5134,2022-05-31,3680000,대전광역시 대덕구
30230-00017,원비래,어린이공원,대전광역시 대덕구 비래서로61번길35 (비래동),대전광역시 대덕구 비래동138-4,36.35593576,127.4520758,1630,야외운동기구,조합놀이대,연식의자,,,1971-08-04,대전광역시 대덕구청,042-608-5134,2022-05-31,3680000,대전광역시 대덕구
30230-00018,홈통골,어린이공원,대전광역시 대덕구 송촌남로47번길 26 (송촌동),대전광역시 대덕구 송촌동290-1,36.35664695,127.4426433,1746,야외운동기구,조합놀이대,"평의자,등의자",,,1971-08-04,대전광역시 대덕구청,042-608-5134,2022-05-31,3680000,대전광역시 대덕구
30230-00019,금바위,어린이공원,,대전광역시 대덕구 송촌동224-5,36.35795416,127.4400659,1818,야외운동기구,"조합놀이대,시소",평의자,`,,1978-10-06,대전광역시 대덕구청,042-608-5134,2022-05-31,3680000,대전광역시 대덕구
30230-00020,한촌,어린이공원,대전광역시 대덕구 한밭대로1114번길 34-8(중리동),대전광역시 대덕구 중리동223-1,36.35754264,127.4217361,8100,"농구장,철봉,평행봉","조합놀이대,그네","등의자,평의자",,,1978-10-06,대전광역시 대덕구청,042-608-5134,2022-05-31,3680000,대전광역시 대덕구
30230-00021,나래,어린이공원,,대전광역시 대덕구 중리동254-8,36.35731536,127.4298792,992.4,야외운동기구,"조합놀이대,그네","평의자,등의자",,,1978-10-06,대전광역시 대덕구청,042-608-5134,2022-05-31,3680000,대전광역시 대덕구
41220-00178,원평14통(삽다리) 어린이공원,어린이공원,,경기도 평택시 신대동 184-9,37.000529,127.058007,1500,,,,,,2016-02-29,경기도 평택시청,031-8024-4247,2022-06-01,3910000,경기도 평택시
30230-00060,후곡,소공원,,대전광역시 대덕구 읍내동574-1,36.37771386,127.427555,1305,,조합놀이대,,,,1998-06-13,대전광역시 대덕구청,042-608-5134,2022-05-31,3680000,대전광역시 대덕구
30230-00061,임천마당,소공원,,대전광역시 대덕구 읍내동517-9,36.37782949,127.4289111,2020,야외운동기구,,"정자,의자",,,2013-04-05,대전광역시 대덕구청,042-608-5134,2022-05-31,3680000,대전광역시 대덕구
30230-00062,효자2,소공원,,대전광역시 대덕구 읍내동219-5,36.37932419,127.4216642,4225.3,,,,,,2007-03-02,대전광역시 대덕구청,042-608-5134,2022-05-31,3680000,대전광역시 대덕구
30230-00063,대화1,소공원,,대전광역시 대덕구 대화동16-145,36.36431024,127.416677,5281,,,,,,2008-10-10,대전광역시 대덕구청,042-608-5134,2022-05-31,3680000,대전광역시 대덕구
30230-00064,대화2-1,소공원,,대전광역시 대덕구 대화동236,36.36523757,127.4104012,1250,,,,,,2009-06-26,대전광역시 대덕구청,042-608-5134,2022-05-31,3680000,대전광역시 대덕구
30230-00065,대화2-2,소공원,,대전광역시 대덕구 대화동 35-466,36.36573663,127.4121333,1372,,,,,,2017-11-01,대전광역시 대덕구청,042-608-5134,2022-05-31,3680000,대전광역시 대덕구
30230-00067,공원(석봉1),소공원,,대전광역시 대덕구 석봉동 482,36.455038,127.425401,4578,,,,,,2016-05-20,대전광역시 대덕구청,042-608-5134,2022-05-31,3680000,대전광역시 대덕구
30230-00068,공원(법동),소공원,,대전광역시 대덕구 법동284-10,36.36713991,127.4248477,4223.9,,,"등의자, 평의자",,,2013-03-15,대전광역시 대덕구청,042-608-5134,2022-05-31,3680000,대전광역시 대덕구
30230-00069,공원(와동),소공원,,대전광역시 대덕구 와동 39,36.39835755,127.4255348,1840,,,,,,2015-04-03,대전광역시 대덕구청,042-608-5134,2022-05-31,3680000,대전광역시 대덕구
30230-00070,동춘당,역사공원,대전광역시 대덕구 동춘당로90 (송촌동),대전광역시 대덕구 송촌동463,36.3653937,127.4402103,55579,"운동시설,다목적광장",,"화장실,주차장,관리사",무형문화재전수회관,,1993-12-08,대전광역시 대덕구청,042-608-5134,2022-05-31,3680000,대전광역시 대덕구
30230-00071,로하스가족,문화공원,,대전광역시 대덕구 미호동643-2,36.45651553,127.4741555,34204,야외운동기구,조합놀이대,캠핑장,,,2014-12-29,대전광역시 대덕구청,042-608-5134,2022-05-31,3680000,대전광역시 대덕구
30230-00072,미호만남,문화공원,,대전광역시 대덕구 미호동 433,36.458537,127.465644,4761,,,화장실,,,2014-12-29,대전광역시 대덕구청,042-608-5134,2022-05-31,3680000,대전광역시 대덕구
30230-00073,안골,문화공원,대전광역시 대덕구 신탄진동로35번길 21(신탄진동),대전광역시 대덕구 신탄진동137-5,36.4490201,127.432778,2002,야외운동기구,"조합놀이대,시소",등의자,,,1982-02-19,대전광역시 대덕구청,042-608-5134,2022-05-31,3680000,대전광역시 대덕구
30230-00074,길치,문화공원,,대전광역시 대덕구 비래동 산 26-27,36.35769598,127.459573,73469,야외운동기구,,"평의자, 등의자, 평의자, 화장실",,,1965-10-14,대전광역시 대덕구청,042-608-5134,2022-05-31,3680000,대전광역시 대덕구
30230-00075,목상,체육공원,,대전광역시 대덕구 목상동 875,37.573502,126.709965,141445,야외운동기구,조합놀이대,"평상,등의자,평의자",,,1965-10-13,대전광역시 대덕구청,042-608-5134,2022-05-31,3680000,대전광역시 대덕구
30230-00076,송촌,체육공원,,대전광역시 대덕구 송촌동24,36.366693,127.446873,103757,"농구장,게이트볼장,배드민턴장,미니축구장",조합놀이대,"평의자,등의자,야외테이블",,,2006-12-29,대전광역시 대덕구청,042-608-5134,2022-05-31,3680000,대전광역시 대덕구
30230-00077,금강로하스산호빛,체육공원,대전광역시 대덕구 대덕대로1527번길 200(석봉동),대전광역시 대덕구 석봉동780,36.45388321,127.4215677,34283,"농구장,족구장,배구장,인라인트랙",,"수영장,음악분수,바닥분수",,,2008-05-02,대전광역시 대덕구청,042-608-5134,2022-05-31,3680000,대전광역시 대덕구
30230-00078,을미기,체육공원,대전광역시 대덕구 대덕대로1448번길120(신일동),대전광역시 대덕구 신일동1682-8,36.44272654,127.4113264,64011,"철봉,야외운동기구","조합놀이대,시소,그네","축구장,테니스장,농구장",들말두레전수회관,,1991-04-12,대전광역시 대덕구청,042-608-5134,2022-05-31,3680000,대전광역시 대덕구
30230-00079,지수,체육공원,,대전광역시 대덕구 상서동 산66-11,36.424873,127.413824,67105,,,,,,1965-10-13,대전광역시 대덕구청,042-608-5134,2022-05-31,3680000,대전광역시 대덕구
30230-00080,신탄진1,체육공원,,대전광역시 대덕구 신탄진동264-2,36.442217,127.432998,11157,,,,,,2009-06-26,대전광역시 대덕구청,042-608-5134,2022-05-31,3680000,대전광역시 대덕구
30230-00081,용정이,체육공원,,대전광역시 대덕구 신탄진동 56-4,36.45468979,127.4348691,24269,,,,,,2016-06-30,대전광역시 대덕구청,042-608-5134,2022-05-31,3680000,대전광역시 대덕구
30230-00082,대청,기타,,대전광역시 대덕구 미호동 57,36.47362538,127.4735679,3219,,,,,,2016-06-30,대전광역시 대덕구청,042-608-5134,2022-05-31,3680000,대전광역시 대덕구
30230-00083,평촌1,기타,,대전광역시 대덕구 평촌동 산4-1,36.437995,127.436928,4173,,,,,,2016-12-23,대전광역시 대덕구청,042-608-5134,2022-05-31,3680000,대전광역시 대덕구
41220-00004,농성 근린공원,근린공원,,경기도 평택시 팽성읍 안정리 78-27,36.965206,127.043748,29511,다리뻗치기+등허리지압기+옆파도타기+온몸근육풀기+온몸허리돌리기+평행봉+하늘걷기,,화장실,,기념비+기념비석+우수맨홀+집수정+충무공 임팔급 기념비+통합기준점+트랜치,1988-05-11,경기도 평택시청,031-8024-4247,2022-06-01,3910000,경기도 평택시
41220-00005,다솜 근린공원(소사벌택지 1호),근린공원,,경기도 평택시 비전동 1005-1 1028-3 1089-3,37.002667,127.093562,59205,등허리지압기+레그프레스+마라톤운동 장형+배드민턴장+배드민턴지주대+옆파도타기+온몸역기내리기+온몸허리돌리기+윗몸일으키기+파크골프장+하늘걷기,,자전거보관대+화장실,,맹암거+오수맨홀+우수관+우수관로+원형맨홀+집수정,2007-11-07,경기도 평택시청,031-8024-4247,2022-06-01,3910000,경기도 평택시
41220-00006,당산 근린공원(소사벌택지 3호),근린공원,,경기도 평택시 죽백동 728공,37.009141,127.116307,42417.7,레그프레스+롤링웨이스트(일반형)+바디싣업+스트레칭로라+체어웨이트+크로스컨트리+트윈트위스트,,자전거보관대+화장실,,PE원형개량오수받이+상수관로+오수관로(PVC이중벽관+관급)+옹벽+우수관로(PVC이중벽관+관급)+원형수로관+집수정-녹지용+집수정-포장용+측구수로관(녹지용)+측구수로관(포장용)+토목(산마루측구)+트랜치,2007-11-07,경기도 평택시청,031-8024-4247,2022-06-01,3910000,경기도 평택시
41220-00007,덕동산 근린공원(비전지구),근린공원,,경기도 평택시 비전동 산84-14,36.99772682,127.1000579,145023,네트걸이+농구대+농구장+다리걸기+다리뻗치기+등부딪히기+등허리지압기+마라톤운동기+매달리기+미니철봉+배드민턴장+벤치프레스+양팔줄당기기+어깨근육풀기+옆파도타기+온몸근육풀기+온몸노젓기+온몸역기올리기+온몸허리돌리기+원형목재 평균대+윗몸일으키기+지압보도+철기둥+철봉+철봉+링+팔굽혀피기+평균대+평행봉+하늘걷기+하늘사다리+허벅지근육풀기,나무숲걷기마당+모래놀이마당+모험놀이마당+실외교구 놀이마당+체험 놀이마당,급수전+음수대+자전거거치대+화장실,,U형측구+기념 헌정탑+디자인집수정+무덤+사당+위령비석+자연보호헌정기념비+정화조 맨홀+집수정+트랜치+현충탑,1953-03-11,경기도 평택시청,031-8024-4247,2022-06-01,3910000,경기도 평택시
41220-00008,동부 근린공원(비전3지구),근린공원,경기도 평택시 동부공원로 46 (비전동),경기도 평택시 비전동 880,36.99398779,127.118683,29821,게이트볼장+농구대(이동식)+다리걸치기+데크관람대+배드민턴장+배드민턴지주대+벤치프레스+어깨근육풀기+옆파도타기+온몸근육풀기+온몸노젓기+온몸허리돌리기+운동장+윗몸일으키기+지압보도+철봉+철봉+링+팔굽혀피기+평행봉+풋살경기장+하늘걷기,그네+그네보호대+모래포장+인공암벽놀이대+조합놀이대+흔들놀이,음수전+화장실,,나트륨섭취관련 조형물+손씻기 조형물+집수정+청소년 담배끊기 조형물+치아건강 조형물+칼로리 둥근 조형물+트랜치,1994-01-11,경기도 평택시청,031-8024-4247,2022-06-01,3910000,경기도 평택시
41220-00009,동부그린 근린공원(비전3지구),근린공원,,경기도 평택시 비전동 875,36.99678572,127.117584,10578,농구대+어깨근육풀기+온몸허리돌리기+운동장+족구대+철봉+평행봉+하늘걷기,그네+그네보호대+모래포장+조합놀이대+흔들놀이,화장실,,조형석+집수정,1994-01-11,경기도 평택시청,031-8024-4247,2022-06-01,3910000,경기도 평택시
41220-00010,동삭 근린공원(동삭지구 1호),근린공원,경기도 평택시 동삭1로22번길 40 (동삭동 지제더샵센트럴파크아파트),경기도 평택시 동삭동 산38-2,37.02276185,127.0906608,11039,,,,,,2009-03-09,경기도 평택시청,031-8024-4247,2022-06-01,3910000,경기도 평택시
41220-00011,모산 근린공원,근린공원,,경기도 평택시 동삭동 396,37.014183,127.093286,277794,어깨근육풀기+옆파도타기+온몸노젓기+온몸허리돌리기+하늘걷기,,화장실,,게이트벨브+빗물받이+상수관+오수관+오수맨홀+오수받이+우수관+집수정,1989-08-19,경기도 평택시청,031-8024-4247,2022-06-01,3910000,경기도 평택시
42150-00075,42호어린이공원,어린이공원,,강원도 강릉시 노암동 722-4,37.7482009,128.8960565,8290,,,,,,2003-06-07,강원도 강릉시청,033-640-5907,2022-06-09,4200000,강원도 강릉시
42150-00076,44호어린이공원,어린이공원,,강원도 강릉시 유천동 780,37.76057029,128.8698689,2459,,,,,,2007-01-02,강원도 강릉시청,033-640-5907,2022-06-09,4200000,강원도 강릉시
41590-00515,74호,기타,,경기도 화성시 오산동 1033-10,37.18468304,127.1036984,282,,,,,,,,031-5189-6961,2022-11-01,5530000,경기도 화성시
42150-00077,45호어린이공원,어린이공원,,강원도 강릉시 홍제동 1038,37.75507303,128.8691014,1943,,,,,,2007-01-02,강원도 강릉시청,033-640-5907,2022-06-09,4200000,강원도 강릉시
42150-00078,46호어린이공원,어린이공원,,강원도 강릉시 홍제동 1042,37.75486136,128.8698497,3465,,,,,,2007-01-02,강원도 강릉시청,033-640-5907,2022-06-09,4200000,강원도 강릉시
42150-00045,7호어린이공원,어린이공원,,강원도 강릉시 포남동 1175-5,37.76974847,128.9103821,2518,,,,,,1979-12-22,강원도 강릉시청,033-640-5907,2022-06-09,4200000,강원도 강릉시
42150-00046,8호어린이공원,어린이공원,,강원도 강릉시 포남동 1159,37.76679847,128.9072227,5174,,,,,,1979-12-22,강원도 강릉시청,033-640-5907,2022-06-09,4200000,강원도 강릉시
42150-00048,10호어린이공원,어린이공원,,강원도 강릉시 포남동 1130-15,37.76194897,128.9045033,2147,,,,,,1979-12-22,강원도 강릉시청,033-640-5907,2022-06-09,4200000,강원도 강릉시
42150-00049,11호어린이공원,어린이공원,,강원도 강릉시 포남동 898-18,37.7615384,128.9060709,1450,,,,,,1979-12-22,강원도 강릉시청,033-640-5907,2022-06-09,4200000,강원도 강릉시
42150-00050,13호어린이공원,어린이공원,,강원도 강릉시 내곡동 620,37.73980835,128.8779379,2000,,,,,,1981-06-11,강원도 강릉시청,033-640-5907,2022-06-09,4200000,강원도 강릉시
42150-00051,12호어린이공원,어린이공원,,강원도 강릉시 노암동 830-1,37.7461093,128.9033765,1500,,,,,,1984-04-04,강원도 강릉시청,033-640-5907,2022-06-09,4200000,강원도 강릉시
42150-00052,14호어린이공원,어린이공원,,강원도 강릉시 홍제동 997-4,37.7537476,128.8816452,1631,,,,,,1985-07-31,강원도 강릉시청,033-640-5907,2022-06-09,4200000,강원도 강릉시
42150-00053,15호어린이공원,어린이공원,,강원도 강릉시 홍제동 990,37.75601514,128.8787383,2012,,,,,,1985-07-31,강원도 강릉시청,033-640-5907,2022-06-09,4200000,강원도 강릉시
42150-00054,16호어린이공원,어린이공원,,강원도 강릉시 교동 1727,37.7584539,128.8807657,2539,,,,,,1985-07-31,강원도 강릉시청,033-640-5907,2022-06-09,4200000,강원도 강릉시
42150-00055,2호어린이공원,어린이공원,,강원도 강릉시 포남동 1223-1,37.77862084,128.9153514,18540,,,,,,1986-02-26,강원도 강릉시청,033-640-5907,2022-06-09,4200000,강원도 강릉시
42150-00056,25호어린이공원,어린이공원,,강원도 강릉시 입암동 710-3,37.75744185,128.9210125,1500,,,,,,1994-11-08,강원도 강릉시청,033-640-5907,2022-06-09,4200000,강원도 강릉시
42150-00057,27호어린이공원,어린이공원,,강원도 강릉시 포남동 1111,37.76727213,128.9045977,1550,,,,,,1994-11-08,강원도 강릉시청,033-640-5907,2022-06-09,4200000,강원도 강릉시
42150-00058,32호어린이공원,어린이공원,,강원도 강릉시 교동 997,37.75614186,128.8877969,1070,,,,,,1994-11-08,강원도 강릉시청,033-640-5907,2022-06-09,4200000,강원도 강릉시
42150-00059,33호어린이공원,어린이공원,,강원도 강릉시 교동 1820-2,37.76847374,128.8774259,1814,,,,,,1996-09-07,강원도 강릉시청,033-640-5907,2022-06-09,4200000,강원도 강릉시
42150-00060,34호어린이공원,어린이공원,,강원도 강릉시 교동 1899-2,37.76323294,128.8734935,1658,,,,,,1996-09-07,강원도 강릉시청,033-640-5907,2022-06-09,4200000,강원도 강릉시
42150-00061,35호어린이공원,어린이공원,,강원도 강릉시 교동 1752,37.76649514,128.8844088,11974,,,,,,1996-09-07,강원도 강릉시청,033-640-5907,2022-06-09,4200000,강원도 강릉시
42150-00062,36호어린이공원,어린이공원,,강원도 강릉시 교동 1855-4,37.76459938,128.8812667,1526,,,,,,1996-09-07,강원도 강릉시청,033-640-5907,2022-06-09,4200000,강원도 강릉시
42150-00063,17호어린이공원,어린이공원,,강원도 강릉시 포남동 1293,37.77289055,128.914161,3090,,,,,,1996-12-10,강원도 강릉시청,033-640-5907,2022-06-09,4200000,강원도 강릉시
42150-00064,18호어린이공원,어린이공원,,강원도 강릉시 포남동 1293-3,37.77082368,128.9144459,1484,,,,,,1996-12-10,강원도 강릉시청,033-640-5907,2022-06-09,4200000,강원도 강릉시
42150-00065,19호어린이공원,어린이공원,,강원도 강릉시 포남동 1307-4,37.77117786,128.917189,1500,,,,,,1996-12-10,강원도 강릉시청,033-640-5907,2022-06-09,4200000,강원도 강릉시
42150-00066,37호어린이공원,어린이공원,,강원도 강릉시 교동 1774,37.7611781,128.8748848,5867,,,,,,1997-05-24,강원도 강릉시청,033-640-5907,2022-06-09,4200000,강원도 강릉시
42150-00067,38호어린이공원,어린이공원,,강원도 강릉시 교동 1761,37.76429682,128.883629,2859,,,,,,1997-05-24,강원도 강릉시청,033-640-5907,2022-06-09,4200000,강원도 강릉시
42150-00068,교항3공원,어린이공원,,강원도 강릉시 주문진읍 교항리 58,37.88120111,128.8253981,4400,,,,,,2002-06-01,강원도 강릉시청,033-640-5907,2022-06-09,4200000,강원도 강릉시
42150-00069,교항4공원,어린이공원,,강원도 강릉시 주문진읍 교항리 12,37.87576439,128.8278246,4006,,,,,,2002-06-01,강원도 강릉시청,033-640-5907,2022-06-09,4200000,강원도 강릉시
42150-00070,교항6공원,어린이공원,,강원도 강릉시 주문진읍 교항리 328-2,37.88380611,128.8241103,1500,,,,,,2002-06-01,강원도 강릉시청,033-640-5907,2022-06-09,4200000,강원도 강릉시
42150-00071,주문1공원,어린이공원,,강원도 강릉시 주문진읍 주문리 326-2,37.89378877,128.8246458,1800,,,,,,2002-06-01,강원도 강릉시청,033-640-5907,2022-06-09,4200000,강원도 강릉시
42150-00072,주문2공원,어린이공원,,강원도 강릉시 주문진읍 주문리 316-2,37.89210167,128.8267242,5700,,,,,,2002-06-01,강원도 강릉시청,033-640-5907,2022-06-09,4200000,강원도 강릉시
42150-00073,주문4공원,어린이공원,,강원도 강릉시 주문진읍 주문리 산80-4,37.89801339,128.8235309,1630,,,,,,2002-06-01,강원도 강릉시청,033-640-5907,2022-06-09,4200000,강원도 강릉시
42150-00074,40호어린이공원,어린이공원,,강원도 강릉시 회산동 4-1,37.74387737,128.8783278,2519,,,,,,2003-06-07,강원도 강릉시청,033-640-5907,2022-06-09,4200000,강원도 강릉시
11740-00018,새장터공원,어린이공원,서울특별시 강동구 암사1가길16(암사동),서울특별시 강동구 암사1동 468-2,37.55212624,127.130563,1592,체력단련기구,조합놀이대+그네,화장실+음수대,,,1976-04-22,서울특별시 강동구청,02-3425-6440,2022-07-21,3240000,서울특별시 강동구
11740-00019,광나루공원,어린이공원,서울특별시 강동구 상암로12-19(암사동),서울특별시 강동구 암사2동 515,37.5500717,127.1255454,1637.7,체력단련기구,조합놀이대+그네,화장실,,,1976-04-22,서울특별시 강동구청,02-3425-6440,2022-07-21,3240000,서울특별시 강동구
11740-00020,볕우물공원,어린이공원,서울특별시 강동구 고덕로24길23(암사동),서울특별시 강동구 암사1동 453-8,37.553613,127.135704,1552.8,체력단련기구,조합놀이대+그네+흔들놀이,음수대,,,1976-04-22,서울특별시 강동구청,02-3425-6440,2022-07-21,3240000,서울특별시 강동구
11740-00021,구암공원,어린이공원,,서울특별시 강동구 암사3동 449-8,37.556567,127.137608,1647.8,체력단련기구,조합놀이대+그네+흔들놀이+모래놀이터,음수대,,,1976-04-22,서울특별시 강동구청,02-3425-6440,2022-07-21,3240000,서울특별시 강동구
11740-00022,선사공원,어린이공원,서울특별시 강동구 올림픽로 836(암사동),서울특별시 강동구 암사3동 440,37.55576061,127.1299975,1610.3,체력단련기구,조합놀이대+흔들놀이,,,,1976-04-22,서울특별시 강동구청,02-3425-6440,2022-07-21,3240000,서울특별시 강동구
11740-00023,천사공원,어린이공원,서울특별시 강동구 천중로12길23-23(천호동),서울특별시 강동구 천호2동 363-5,37.54380935,127.1284086,1617.2,체력단련기구,조합놀이대+그네+시소+모래놀이터,음수대,,,1976-04-22,서울특별시 강동구청,02-3425-6440,2022-07-21,3240000,서울특별시 강동구
11740-00024,고분다리공원,어린이공원,서울특별시 강동구 구천면로39길23(천호동),서울특별시 강동구 천호2동 300,37.54540502,127.131821,1621.8,체력단련기구,조합놀이대+그네+흔들놀이,음수대,,,1976-04-22,서울특별시 강동구청,02-3425-6440,2022-07-21,3240000,서울특별시 강동구
11740-00025,동산공원,어린이공원,,서울특별시 강동구 천호2동 305-11,37.547119,127.129682,1646,체력단련기구,조합놀이대+그네+흔들놀이+모래놀이터,음수대,,,1976-04-22,서울특별시 강동구청,02-3425-6440,2022-07-21,3240000,서울특별시 강동구
11740-00026,광진공원,어린이공원,서울특별시 강동구 구천면로13길21(천호동),서울특별시 강동구 천호2동 338-19,37.542946,127.122505,1672.7,체력단련기구,조합놀이대+흔들놀이,,,,1976-04-22,서울특별시 강동구청,02-3425-6440,2022-07-21,3240000,서울특별시 강동구
11740-00027,천일골목공원,어린이공원,서울특별시 강동구 진황도로27다길30(천호동),서울특별시 강동구 천호1동 21-192,37.5405287,127.1314181,233,체력단련기구,,,,,1977-07-04,서울특별시 강동구청,02-3425-6440,2022-07-21,3240000,서울특별시 강동구
11740-00028,천호삼거리공원,어린이공원,,서울특별시 강동구 천호1동 21-194,37.545489,127.138494,170,체력단련기구,,,,,1977-07-04,서울특별시 강동구청,02-3425-6440,2022-07-21,3240000,서울특별시 강동구
11740-00029,천호큰골목공원,어린이공원,,서울특별시 강동구 천호1동 21-197,37.545101,127.138573,586,체력단련기구,,,,,1977-07-04,서울특별시 강동구청,02-3425-6440,2022-07-21,3240000,서울특별시 강동구
11740-00030,천암공원,어린이공원,,서울특별시 강동구 천호1동 231-14,37.547844,127.136878,166,체력단련기구,조합놀이대,,,,1977-07-04,서울특별시 강동구청,02-3425-6440,2022-07-21,3240000,서울특별시 강동구
11740-00031,성내공원,근린공원,서울특별시 강동구 성내로3가길 71(성내동),서울특별시 강동구 성내1동 533,37.529486,127.126516,8929,배드민턴장+게이트볼장+체력단련기구,조합놀이대+그네,화장실+공중전화,,,1977-07-09,서울특별시 강동구청,02-3425-6440,2022-07-21,3240000,서울특별시 강동구
11740-00032,샛마을공원,근린공원,,서울특별시 강동구 명일1동 288,37.550106,127.147099,11467,농구장+게이트볼장+체력단련기구,조합놀이대+그네+흔들놀이,화장실+음수대,,관리사무소,1979-11-07,서울특별시 강동구청,02-3425-6440,2022-07-21,3240000,서울특별시 강동구
11740-00033,화랑공원,어린이공원,,서울특별시 강동구 천호2동 431-2,37.540033,127.123192,220,체력단련기구,조합놀이대,,,,1980-03-27,서울특별시 강동구청,02-3425-6440,2022-07-21,3240000,서울특별시 강동구
11740-00034,꿈나래공원,어린이공원,서울특별시 강동구 아리수로64길29(고덕동),서울특별시 강동구 고덕1동 536,37.5608275,127.153742,1500,체력단련기구,조합놀이대+그네+흔들놀이+모래놀이터,음수대,,,1980-03-27,서울특별시 강동구청,02-3425-6440,2022-07-21,3240000,서울특별시 강동구
11740-00035,곰돌이공원,어린이공원,,서울특별시 강동구 고덕1동 308,37.556235,127.154997,1983,체력단련기구,조합놀이대+그네+시소+흔들놀이+모래놀이터,,,,1980-03-27,서울특별시 강동구청,02-3425-6440,2022-07-21,3240000,서울특별시 강동구
11740-00036,한우물공원,어린이공원,서울특별시 강동구 아리수로72길60-16(고덕동),서울특별시 강동구 고덕2동 253,37.561635,127.162736,1500,체력단련기구,조합놀이대+그네+흔들놀이+모래놀이터,음수대,,,1980-03-27,서울특별시 강동구청,02-3425-6440,2022-07-21,3240000,서울특별시 강동구
11740-00037,무지개공원,어린이공원,,서울특별시 강동구 고덕2동 219,37.559162,127.164191,1967.5,체력단련기구,조합놀이대+그네+흔들놀이,,,,1980-03-27,서울특별시 강동구청,02-3425-6440,2022-07-21,3240000,서울특별시 강동구
11740-00038,말우물공원,어린이공원,서울특별시 강동구 상일로21길14-7(고덕동),서울특별시 강동구 고덕2동 178,37.560012,127.169476,1619.1,체력단련기구,조합놀이대+그네,음수대,,,1980-03-27,서울특별시 강동구청,02-3425-6440,2022-07-21,3240000,서울특별시 강동구
11740-00039,미리내공원,어린이공원,,서울특별시 강동구 상일동 122,37.554712,127.167908,4286.2,운동장+농구장,,,,,1980-03-27,서울특별시 강동구청,02-3425-6440,2022-07-21,3240000,서울특별시 강동구
11740-00040,동자공원,어린이공원,,서울특별시 강동구 상일동 132,37.552388,127.167009,1520.8,체력단련기구,,,,,1980-03-27,서울특별시 강동구청,02-3425-6440,2022-07-21,3240000,서울특별시 강동구
50130-00050,바다어린이공원,어린이공원,,제주특별자치도 서귀포시 강정동 199-1,33.25230984,126.5024641,2022,,조합놀이대외 5종,파고라 1식,,,2008-07-02,제주특별자치도 서귀포시청,064-760-3192,2022-06-30,6520000,제주특별자치도 서귀포시
50130-00051,숲속어린이공원,어린이공원,,제주특별자치도 서귀포시 강정동 191-1,33.25423268,126.5037358,2136,,조합놀이대외 6종,파고라 1식,,,2008-07-02,제주특별자치도 서귀포시청,064-760-3192,2022-06-30,6520000,제주특별자치도 서귀포시
50130-00052,강정제1호공원,근린공원,,제주특별자치도 서귀포시 강정동 201,33.25388552,126.5048106,11674,운동기구 5종,,파고라 1식,,새서귀노인회관,2008-07-02,제주특별자치도 서귀포시청,064-760-3192,2022-06-30,6520000,제주특별자치도 서귀포시
50130-00053,칠십리공원,근린공원,,제주특별자치도 서귀포시 서홍동 653-1,33.24497106,126.5561557,157591,운동기구 19종,조합놀이대외 4종,파고라 14식,,,2017-04-10,제주특별자치도 서귀포시청,064-760-3192,2022-06-30,6520000,제주특별자치도 서귀포시
50130-00054,샛기정공원,근린공원,,제주특별자치도 서귀포시 서귀동 799-3,33.2457375,126.5593159,54059,운동기구 12종,,파고라  2식,,,2017-04-10,제주특별자치도 서귀포시청,064-760-3192,2022-06-30,6520000,제주특별자치도 서귀포시
41220-00001,1호 근린공원(세교지구),근린공원,,경기도 평택시 세교동 55,37.004773,127.087643,11209,,,,,,2010-04-01,경기도 평택시청,031-8024-4247,2022-06-01,3910000,경기도 평택시
41220-00002,남산 근린공원,근린공원,경기도 평택시 팽성읍 팽성송화로 76,경기도 평택시 팽성읍 남산리 산49-1,36.95455613,127.0548927,43411,,,,,,2010-12-30,경기도 평택시청,031-8024-4247,2022-06-01,3910000,경기도 평택시
41220-00003,경기도 평택시 팽성읍 송화택지로25번길 61,근린공원,경기도 평택시 팽성읍 송화택지로25번길 63,경기도 평택시 팽성읍 송화리 789,36.96161211,127.0608092,15253.8,게이트볼장+마라톤운동기+심판의자+옆파도타기+온몸근육풀기+온몸노젓기+온몸역기올리기+온몸허리돌리기+윗몸일으키기+족구대+족구장+철봉+평행봉+하늘걷기,그네+그네보호대+모래포장+조합놀이대+흔들놀이,음수대+화장실,,맹암거(간선)+맹암거(지선)+빗물받이+옹벽+우수관+원형수로관+조각 조형물(가족)+집수정+트랜치,1999-03-19,경기도 평택시청,031-8024-4247,2022-06-01,3910000,경기도 평택시
30110-00058,옥토끼공원,어린이공원,,대전광역시 동구 낭월동 810,36.2754382,127.4673949,1501.5,레그프레스+워밍암+스텝사이클+롤링웨이스트+체어풀,조합놀이대+흔들놀이2+회전놀이,화장실+파고라,,,2009-01-09,대전광역시 동구청,042-251-4755,2022-06-10,3640000,대전광역시 동구
41135-00054,목련공원,어린이공원,,경기도 성남시 분당구 야탑동 167,37.4078383,127.1393903,1572.1,,어린이놀이터,벤치+음수전,,,1990-06-22,경기도 성남시 분당구 녹지공원과,031-729-8092,2022-11-13,3780000,경기도 성남시
41590-00512,72호,기타,,경기도 화성시 오산동1031-16,37.18554973,127.1017626,96,,,,,,,,031-5189-6961,2022-11-01,5530000,경기도 화성시
41135-00055,신일공원,어린이공원,,경기도 성남시 분당구 야탑동 164,37.4071935,127.1441091,1581.5,,어린이놀이터,벤치,,,1990-06-22,경기도 성남시 분당구 녹지공원과,031-729-8092,2022-11-13,3780000,경기도 성남시
41135-00056,과수원공원,어린이공원,,경기도 성남시 분당구 이매동 103,37.40245774,127.125995,5180.1,야외운동기구,어린이놀이터,벤치,,,1990-06-22,경기도 성남시 분당구 녹지공원과,031-729-8092,2022-11-13,3780000,경기도 성남시
41135-00057,아름공원,어린이공원,,경기도 성남시 분당구 이매동 134,37.4025069,127.1230174,5153.9,야외운동기구,어린이놀이터,벤치,,,1990-06-22,경기도 성남시 분당구 녹지공원과,031-729-8092,2022-11-13,3780000,경기도 성남시
41135-00058,매송공원,어린이공원,,경기도 성남시 분당구 이매동 144,37.39761454,127.1229659,4997.6,야외운동기구,어린이놀이터,벤치,,,1990-06-22,경기도 성남시 분당구 녹지공원과,031-729-8092,2022-11-13,3780000,경기도 성남시
41135-00059,방아다리공원,어린이공원,,경기도 성남시 분당구 이매동 114,37.3977294,127.1258001,5199.2,야외운동기구,어린이놀이터,벤치,,,1990-06-22,경기도 성남시 분당구 녹지공원과,031-729-8092,2022-11-13,3780000,경기도 성남시
41135-00060,이매길공원,어린이공원,,경기도 성남시 분당구 이매동 148,37.3930408,127.1222566,2695.4,,어린이놀이터,벤치,,,1990-06-22,경기도 성남시 분당구 녹지공원과,031-729-8092,2022-11-13,3780000,경기도 성남시
41135-00061,구렛들공원,어린이공원,,경기도 성남시 분당구 이매동 119,37.39235792,127.1249861,3269.5,야외운동기구,어린이놀이터,벤치,,,1990-06-22,경기도 성남시 분당구 녹지공원과,031-729-8092,2022-11-13,3780000,경기도 성남시
41135-00062,누엣길공원,어린이공원,,경기도 성남시 분당구 이매동 125,37.38988839,127.1256345,3900.7,야외운동기구,어린이놀이터,벤치,,바닥분수,1990-06-22,경기도 성남시 분당구 녹지공원과,031-729-8092,2022-11-13,3780000,경기도 성남시
41135-00063,솔밭공원,어린이공원,경기도 성남시 분당구 새마을로1번길 3,경기도 성남시 분당구 서현동 78-4,37.38461132,127.1305004,2234.3,,어린이놀이터,벤치+파고라,,,1990-06-22,경기도 성남시 분당구 녹지공원과,031-729-7463,2022-11-13,3780000,경기도 성남시
41135-00064,소공원공원,어린이공원,,경기도 성남시 분당구 서현동 324,37.3795209,127.1368551,1219.7,,어린이놀이터,벤치+파고라+화장실,,,1990-06-22,경기도 성남시 분당구 녹지공원과,031-729-7463,2022-11-13,3780000,경기도 성남시
41135-00065,점골공원,어린이공원,경기도 성남시 분당구 불정로 419,경기도 성남시 분당구 서현동 332,37.37694545,127.1399836,4487.5,,어린이놀이터,벤치+파고라,,,1990-06-22,경기도 성남시 분당구 녹지공원과,031-729-7463,2022-11-13,3780000,경기도 성남시
41135-00066,양지공원,어린이공원,경기도 성남시 분당구 서현로421번길 9,경기도 성남시 분당구 분당동 101,37.37517435,127.1442164,1733,야외운동기구,어린이놀이터,벤치+파고라,,,1990-06-22,경기도 성남시 분당구 녹지공원과,031-729-7463,2022-11-13,3780000,경기도 성남시
41135-00067,서현공원,어린이공원,,경기도 성남시 분당구 서현동 89-6,37.3820487,127.1270454,11273.5,야외운동기구,어린이놀이터,벤치+파고라+화장실,,바닥분수,1990-06-22,경기도 성남시 분당구 녹지공원과,031-729-7463,2022-11-13,3780000,경기도 성남시
41135-00068,분당공원,어린이공원,,경기도 성남시 분당구 서현동 94-1,37.379099,127.1312115,9428.5,야외운동기구+다목적운동장,어린이놀이터,벤치+파고라+화장실,,,1990-06-22,경기도 성남시 분당구 녹지공원과,031-729-7463,2022-11-13,3780000,경기도 성남시
42110-00069,말탕개미공원,어린이공원,강원도 춘천시 후평동 858-3,강원도 춘천시 후평1동 858-3번지,37.859825,127.741181,1500,,,,,,1985-10-21,강원도 춘천시,033-250-3151,2022-01-18,4180000,강원도 춘천시
42110-00070,후평새싹공원,어린이공원,강원도 춘천시 후평동 849-5,강원도 춘천시 후평1동 849-5번지,37.858119,127.744019,3342,,,,,,1985-10-21,강원도 춘천시,033-250-3151,2022-01-18,4180000,강원도 춘천시
42110-00071,지성공원,어린이공원,강원도 춘천시 효자동 175-40,강원도 춘천시 효자동 175-40번지,37.861651,127.740281,1565,,,,,,1987-07-02,강원도 춘천시,033-250-3151,2022-01-18,4180000,강원도 춘천시
42110-00072,행복공원,어린이공원,강원도 춘천시 석사동 703,강원도 춘천시 석사동 703번지,37.877236,127.758069,1751,,,,,,1988-12-17,강원도 춘천시,033-250-3151,2022-01-18,4180000,강원도 춘천시
42110-00073,곰도리공원,어린이공원,강원도 춘천시 석사동 647-5,강원도 춘천시 석사동 647-5번지,37.874752,127.758721,1536,,,,,,1988-12-17,강원도 춘천시,033-250-3151,2022-01-18,4180000,강원도 춘천시
42110-00074,푸르미공원,어린이공원,강원도 춘천시 석사동 668,강원도 춘천시 석사동 668번지,37.864738,127.727964,1655,,,,,,1988-12-17,강원도 춘천시,033-250-3151,2022-01-18,4180000,강원도 춘천시
42110-00075,세실공원,어린이공원,강원도 춘천시 후평동 868,강원도 춘천시 후평동 868번지,37.866863,127.723849,3373,,,,,,1988-11-29,강원도 춘천시,033-250-3151,2022-01-18,4180000,강원도 춘천시
42110-00076,호반공원,어린이공원,강원도 춘천시 후평동 879-3,강원도 춘천시 후평3동 879-3번지,37.865907,127.725716,1712,,,,,,1988-11-29,강원도 춘천시,033-250-3151,2022-01-18,4180000,강원도 춘천시
42110-00077,남춘천공원,어린이공원,강원도 춘천시 퇴계동 1147,강원도 춘천시 퇴계동 1147번지,37.865566,127.723453,1727,,,,,,1993-07-09,강원도 춘천시,033-250-3151,2022-01-18,4180000,강원도 춘천시
42110-00078,우묵들1공원,어린이공원,강원도 춘천시 퇴계동 1157,강원도 춘천시 퇴계동 1157번지,37.901078,127.727775,1510,,,,,,1993-07-09,강원도 춘천시,033-250-3151,2022-01-18,4180000,강원도 춘천시
42110-00079,우묵들2공원,어린이공원,강원도 춘천시 퇴계동 1154,강원도 춘천시 퇴계동 1154번지,37.899664,127.729582,1500,,,,,,1993-07-09,강원도 춘천시,033-250-3151,2022-01-18,4180000,강원도 춘천시
42110-00080,우묵들3공원,어린이공원,강원도 춘천시 퇴계동 1185,강원도 춘천시 퇴계동 1185번지,37.859555,127.725626,1620,,,,,,1993-07-09,강원도 춘천시,033-250-3151,2022-01-18,4180000,강원도 춘천시
42110-00081,열린공원,어린이공원,강원도 춘천시 온의동 527,강원도 춘천시 온의동 527번지,37.867166,127.756461,1558,,,,,,1990-12-24,강원도 춘천시,033-250-3151,2022-01-18,4180000,강원도 춘천시
42110-00082,남부새싹공원,어린이공원,강원도 춘천시 퇴계동 911,강원도 춘천시 퇴계동 911번지,37.858519,127.720256,2257,,,,,,1990-12-24,강원도 춘천시,033-250-3151,2022-01-18,4180000,강원도 춘천시
42110-00083,언덕공원,어린이공원,강원도 춘천시 온의동 552,강원도 춘천시 온의동 552번지,37.860748,127.719832,2847,,,,,,1990-12-24,강원도 춘천시,033-250-3151,2022-01-18,4180000,강원도 춘천시
42110-00084,은행나무공원,어린이공원,강원도 춘천시 온의동 542,강원도 춘천시 온의동 542번지,37.871476,127.754919,2126,,,,,,1990-12-24,강원도 춘천시,033-250-3151,2022-01-18,4180000,강원도 춘천시
42110-00085,드림공원,어린이공원,강원도 춘천시 우두동 1050,강원도 춘천시 우두동 1050번지,37.872015,127.757211,2103,,,,,,1993-11-27,강원도 춘천시,033-250-3151,2022-01-18,4180000,강원도 춘천시
42110-00086,상록공원,어린이공원,강원도 춘천시 우두동 1064-1,강원도 춘천시 우두동 1064-1번지,37.873568,127.755735,1269,,,,,,1993-11-27,강원도 춘천시,033-250-3151,2022-01-18,4180000,강원도 춘천시
42110-00087,동부공원,어린이공원,강원도 춘천시 후평동 896,강원도 춘천시 후평3동 896번지,37.841078,127.715894,2600,,,,,,1988-12-07,강원도 춘천시,033-250-3151,2022-01-18,4180000,강원도 춘천시
42110-00088,진선2공원,어린이공원,강원도 춘천시 후평동 897,강원도 춘천시 후평3동 897번지,37.844027,127.712931,2490,,,,,,1988-12-07,강원도 춘천시,033-250-3151,2022-01-18,4180000,강원도 춘천시
42110-00089,진선1공원,어린이공원,강원도 춘천시 후평동 898,강원도 춘천시 후평동 898번지,37.844027,127.712931,1640,,,,,,1988-12-07,강원도 춘천시,033-250-3151,2022-01-18,4180000,강원도 춘천시
42110-00090,석사새싹공원,어린이공원,강원도 춘천시 석사동 775,강원도 춘천시 석사동 775번지,37.842871,127.710938,1581,,,,,,1997-05-28,강원도 춘천시,033-250-3151,2022-01-18,4180000,강원도 춘천시
42110-00091,양지공원,어린이공원,강원도 춘천시 석사동 763,강원도 춘천시 석사동 763번지,37.843312,127.716212,2985,,,,,,1997-05-28,강원도 춘천시,033-250-3151,2022-01-18,4180000,강원도 춘천시
42110-00092,우석새싹공원,어린이공원,강원도 춘천시 석사동 741-6,강원도 춘천시 석사동 741-6번지,37.868785,127.755768,1600,,,,,,1997-05-28,강원도 춘천시,033-250-3151,2022-01-18,4180000,강원도 춘천시
42110-00093,미리네공원,어린이공원,강원도 춘천시 석사동 731,강원도 춘천시 석사동 731번지,37.866259,127.753723,3430,,,,,,1997-05-28,강원도 춘천시,033-250-3151,2022-01-18,4180000,강원도 춘천시
44210-00009,지곡2공원,근린공원,,충청남도 서산시 지곡면 화천리 1457,36.86116795,126.4392462,197802,,,,,,,충청남도 서산시청,041-660-2199,2022-07-31,4530000,충청남도 서산시
44210-00010,성연1공원,근린공원,,충청남도 서산시 성연면 오사리 1618,36.84597512,126.4404768,105443,,,,,,,충청남도 서산시청,041-660-2199,2022-07-31,4530000,충청남도 서산시
44210-00011,성연2공원,근린공원,,충청남도 서산시 성연면 오사리 1620,36.84481088,126.4410216,274902,,,,,,,충청남도 서산시청,041-660-2199,2022-07-31,4530000,충청남도 서산시
44210-00012,북1공원,근린공원,,충청남도 서산시 지곡면 무장리 1797,36.8556513,126.458065,115353,,,,,,,충청남도 서산시청,041-660-2199,2022-07-31,4530000,충청남도 서산시
44210-00013,테크노 제1호 근린공원,근린공원,충청남도 서산시 성연면 성연3로 120,충청남도 서산시 성연면 오사리 1793,36.82865018,126.4484025,370946,,,,,,,충청남도 서산시청,041-660-2199,2022-07-31,4530000,충청남도 서산시
44210-00014,테크노 제2호 근린공원,근린공원,,충청남도 서산시 성연면 왕정리 711,36.8253192,126.4524562,921629,,,,,,,충청남도 서산시청,041-660-2199,2022-07-31,4530000,충청남도 서산시
44210-00015,테크노 제3호 근린공원,근린공원,충청남도 서산시 성연면 성연4로 27-15,충청남도 서산시 성연면 일람리 1119,36.82239481,126.4503018,139223,,,,,,,충청남도 서산시청,041-660-2199,2022-07-31,4530000,충청남도 서산시
44210-00016,고북제2근린공원,근린공원,,충청남도 서산시 고북면 가구리 625-28,36.66780306,126.5345433,237910,,,,,,,충청남도 서산시청,041-660-2199,2022-07-31,4530000,충청남도 서산시
44210-00017,명지어린이공원,어린이공원,,충청남도 서산시 대산읍 대로리 279-19,36.97076719,126.4108542,16300,,,,,,,충청남도 서산시청,041-660-2199,2022-07-31,4530000,충청남도 서산시
44210-00018,대산 제33호 어린이공원,어린이공원,,충청남도 서산시 대산읍 대산리 1498,36.9397312,126.4261882,15865,,,,,,,충청남도 서산시청,041-660-2199,2022-07-31,4530000,충청남도 서산시
44210-00019,대산 제34호 어린이공원,어린이공원,,충청남도 서산시 대산읍 대산리 1735,36.93800109,126.429692,17036,,,,,,,충청남도 서산시청,041-660-2199,2022-07-31,4530000,충청남도 서산시
44210-00020,서산 제2호 어린이공원,어린이공원,,충청남도 서산시 읍내동415-1,36.78659867,126.4461359,16240,,,,,,,충청남도 서산시청,041-660-2199,2022-07-31,4530000,충청남도 서산시
44210-00021,서산 제3호 어린이공원,어린이공원,,충청남도 서산시 읍내동624-3,36.78434139,126.4448983,16700,,,,,,,충청남도 서산시청,041-660-2199,2022-07-31,4530000,충청남도 서산시
44210-00022,서산 제5호 어린이공원,어린이공원,,충청남도 서산시 해미면 읍내리136-1,36.7112716,126.5519533,37800,,,,,,,충청남도 서산시청,041-660-2199,2022-07-31,4530000,충청남도 서산시
44210-00023,서산 제7호 어린이공원,어린이공원,,충청남도 서산시 동문동470-2,36.78955106,126.4589366,16790,,,,,,,충청남도 서산시청,041-660-2199,2022-07-31,4530000,충청남도 서산시
44210-00024,서산 제8호 어린이공원,어린이공원,,충청남도 서산시 동문동470-23,36.78817605,126.4603355,16230,,,,,,,충청남도 서산시청,041-660-2199,2022-07-31,4530000,충청남도 서산시
44210-00025,서산 제9호 어린이공원,어린이공원,,충청남도 서산시 동문동 404-9,36.78574625,126.4589739,16740,,,,,,,충청남도 서산시청,041-660-2199,2022-07-31,4530000,충청남도 서산시
44210-00026,서산 제10호 어린이공원,어린이공원,,충청남도 서산시 동문동 381-1,36.78532659,126.4616753,13020,,,,,,,충청남도 서산시청,041-660-2199,2022-07-31,4530000,충청남도 서산시
44210-00027,서산 제11호 어린이공원,어린이공원,,충청남도 서산시 동문동 44-6,36.78603556,126.4641387,16700,,,,,,,충청남도 서산시청,041-660-2199,2022-07-31,4530000,충청남도 서산시
44210-00028,서산 제15호 어린이공원,어린이공원,,충청남도 서산시 동문동 1260,36.78222583,126.4672319,15000,,,,,,,충청남도 서산시청,041-660-2199,2022-07-31,4530000,충청남도 서산시
44210-00029,서산 제17호 어린이공원,어린이공원,,충청남도 서산시 동문동 301-4,36.78096489,126.4610887,16500,,,,,,,충청남도 서산시청,041-660-2199,2022-07-31,4530000,충청남도 서산시
44210-00030,서산 제18호 어린이공원,어린이공원,,충청남도 서산시 동문동 225-3,36.77886531,126.4632376,17350,,,,,,,충청남도 서산시청,041-660-2199,2022-07-31,4530000,충청남도 서산시
44210-00031,서산 제19호 어린이공원,어린이공원,,충청남도 서산시 동문동 295-6,36.77686705,126.4645459,17350,,,,,,,충청남도 서산시청,041-660-2199,2022-07-31,4530000,충청남도 서산시
44210-00032,서산 제20호 어린이공원,어린이공원,,충청남도 서산시 읍내동751-7,36.77711898,126.4422827,18820,,,,,,,충청남도 서산시청,041-660-2199,2022-07-31,4530000,충청남도 서산시
44210-00033,서산 제21호 어린이공원,어린이공원,,충청남도 서산시 예천동497-6,36.77428979,126.4471269,18450,,,,,,,충청남도 서산시청,041-660-2199,2022-07-31,4530000,충청남도 서산시
44210-00034,서산 제22호 어린이공원,어린이공원,,충청남도 서산시 예천동1279-3,36.7721696,126.4502773,27939,,,,,,,충청남도 서산시청,041-660-2199,2022-07-31,4530000,충청남도 서산시
44210-00035,서산 제24호 어린이공원,어린이공원,,충청남도 서산시 동문동 1007-12,36.77708785,126.4561624,15190,,,,,,,충청남도 서산시청,041-660-2199,2022-07-31,4530000,충청남도 서산시
44210-00036,서산 제25호 어린이공원,어린이공원,,충청남도 서산시 동문동 271-4,36.77774777,126.4585419,18850,,,,,,,충청남도 서산시청,041-660-2199,2022-07-31,4530000,충청남도 서산시
41113-00121,12호소공원,소공원,,경기도 수원시 권선구 평동 13-236,37.23979543,127.0552753,1315.3,,휴게쉼터,,,,,경기도 수원시 권선구 녹지공원과,031-228-6195,2022-06-20,3740000,경기도 수원시
41390-00113,갈대하늘공원,근린공원,경기도 시흥시,경기도 시흥시 정왕동 2579-2,37.35863879,126.7103801,18818,,,,,,2011-10-04,경기도 시흥시청,031-310-3863,2022-11-28,4010000,경기도 시흥시
41390-00114,문화공원,문화공원,경기도 시흥시,경기도 시흥시 정왕동 2134,37.33327055,126.746155,14346,,,,,,2011-10-28,경기도 시흥시청,031-310-3862,2022-11-28,4010000,경기도 시흥시
41390-00115,힘찬공원,체육공원,경기도 시흥시 엠티브이북로 253,경기도 시흥시 정왕동 2659,37.318068,126.704841,38552,,,,,,2011-11-04,경기도 시흥시청,031-310-3869,2022-11-28,4010000,경기도 시흥시
41390-00116,해찬공원,어린이공원,경기도 시흥시,경기도 시흥시 산현동 519,37.37289246,126.8477485,1517,,,,,,2011-12-21,경기도 시흥시청,031-310-3871,2022-11-28,4010000,경기도 시흥시
41390-00117,을미공원,어린이공원,경기도 시흥시,경기도 시흥시 조남동 681,37.37153568,126.854846,1557,,,,,,2011-12-21,경기도 시흥시청,031-310-3871,2022-11-28,4010000,경기도 시흥시
41390-00118,수풀안공원,어린이공원,경기도 시흥시,경기도 시흥시 조남동 722,37.37865922,126.863483,1697,,,,,,2011-12-21,경기도 시흥시청,031-310-3871,2022-11-28,4010000,경기도 시흥시
41390-00119,다니공원,체육공원,경기도 시흥시 마산로 43,경기도 시흥시 조남동 689,37.37581307,126.856496,12096,,,,,,2011-12-21,경기도 시흥시청,031-310-3869,2022-11-28,4010000,경기도 시흥시
41390-00120,새미공원,체육공원,경기도 시흥시,경기도 시흥시 조남동 705,37.37743285,126.8574734,15911,,,,,,2011-12-21,경기도 시흥시청,031-310-3869,2022-11-28,4010000,경기도 시흥시
41390-00121,물왕소공원,소공원,경기도 시흥시,경기도 시흥시 산현동 493,37.377381,126.8430459,1421,,,,,,2014-09-22,경기도 시흥시청,031-310-3871,2022-11-28,4010000,경기도 시흥시
41390-00122,남왕소공원,소공원,경기도 시흥시,경기도 시흥시 목감동 400,37.38364942,126.860952,882,,,,,,2014-09-22,경기도 시흥시청,031-310-3871,2022-11-28,4010000,경기도 시흥시
41390-00123,새늘공원,문화공원,경기도 시흥시 동서로 902-20,경기도 시흥시 산현동 495,37.37795182,126.8461768,4653,,,,,,2014-09-22,경기도 시흥시청,031-310-3869,2022-11-28,4010000,경기도 시흥시
41390-00124,문화2공원,문화공원,경기도 시흥시,경기도 시흥시 조남동 649,37.37763818,126.8499161,4222,,,,,,2014-09-23,경기도 시흥시청,031-310-3869,2022-11-28,4010000,경기도 시흥시
41390-00125,정왕동 체육4공원,체육공원,경기도 시흥시,경기도 시흥시 정왕동 1878-1,37.36540222,126.7311343,11676,,,,,,2014-12-31,경기도 시흥시청,031-310-3862,2022-11-28,4010000,경기도 시흥시
41390-00126,정왕동 체육5공원,체육공원,경기도 시흥시 함송로 8,경기도 시흥시 정왕동 1886-1,37.364027,126.728511,10117,,,,,,2014-12-31,경기도 시흥시청,031-310-3862,2022-11-28,4010000,경기도 시흥시
41390-00127,하중어린이공원,어린이공원,경기도 시흥시,경기도 시흥시 하중동 872-2,37.39119172,126.8072188,2810,,조합놀이대,,,,2018-05-15,경기도 시흥시청,031-310-3871,2022-11-28,4010000,경기도 시흥시
41390-00128,생금공원,어린이공원,경기도 시흥시 죽율로 45-32,경기도 시흥시 죽율동 765,37.350594,126.758275,7360,,,,,,,경기도 시흥시청,031-310-3871,2022-11-28,4010000,경기도 시흥시
41390-00129,죽율공원,어린이공원,경기도 시흥시,경기도 시흥시 죽율동 755,37.34805344,126.7621865,1806,,,,,,,경기도 시흥시청,031-310-3871,2022-11-28,4010000,경기도 시흥시
41390-00130,꿈누리공원,어린이공원,경기도 시흥시,경기도 시흥시 정왕동 2759,37.3191123,126.697642,2266,,,,,,,경기도 시흥시청,031-310-3863,2022-11-28,4010000,경기도 시흥시
41390-00131,꿈자람공원,어린이공원,경기도 시흥시,경기도 시흥시 정왕동 2788,37.31664596,126.7031618,1907,,,,,,,경기도 시흥시청,031-310-3863,2022-11-28,4010000,경기도 시흥시
41390-00132,꿈물결공원,어린이공원,경기도 시흥시,경기도 시흥시 정왕동 2810,37.31781215,126.696343,2341,,,,,,,경기도 시흥시청,031-310-3863,2022-11-28,4010000,경기도 시흥시
41390-00133,오이도공원,문화공원,경기도 시흥시,경기도 시흥시 정왕동 2022-6,37.3420815,126.6902007,18355,,조합놀이대,,,,,경기도 시흥시청,031-310-2338,2022-11-28,4010000,경기도 시흥시
41390-00134,조남소공원,소공원,경기도 시흥시,경기도 시흥시 조남동 175-5,37.3807067,126.8554643,446,,놀이기구,,,,,경기도 시흥시청,031-310-3871,2022-11-28,4010000,경기도 시흥시
41390-00135,해담공원,어린이공원,경기도 시흥시,경기도 시흥시 정왕동 2408,37.37924736,126.7278446,2724,,조합놀이대,,,,,경기도 시흥시청,031-310-3863,2022-11-28,4010000,경기도 시흥시
41390-00136,꿈마루공원,어린이공원,경기도 시흥시,경기도 시흥시 정왕동 2417,37.37845513,126.7297082,1685,,조합놀이대,,,,,경기도 시흥시청,031-310-3863,2022-11-28,4010000,경기도 시흥시
41390-00137,갯마루공원,어린이공원,경기도 시흥시,경기도 시흥시 정왕동 2449,37.37709889,126.7299812,1603,,조합놀이대,,,,,경기도 시흥시청,031-310-3863,2022-11-28,4010000,경기도 시흥시
41390-00138,도란1공원,소공원,경기도 시흥시,경기도 시흥시 정왕동 2517-2,37.36919352,126.7285868,1863,,,,,,,경기도 시흥시청,031-310-3863,2022-11-28,4010000,경기도 시흥시
41390-00139,라온공원,소공원,경기도 시흥시,경기도 시흥시 정왕동 2589-1,37.35367684,126.7054514,9174,,,,,,,경기도 시흥시청,031-310-3863,2022-11-28,4010000,경기도 시흥시
41220-00157,소사1 어린이공원(소사지구),어린이공원,,경기도 평택시 소사동 525,36.989393,127.124254,1480,,그네+시소+조합놀이대+탄성고무칩포장,,,,2005-05-09,경기도 평택시청,031-8024-4247,2022-06-01,3910000,경기도 평택시
41220-00158,소사뜰 어린이공원(소사2지구),어린이공원,,경기도 평택시 소사동 23-4,36.98883835,127.130491,2754,,,,,,2011-07-14,경기도 평택시청,031-8024-4247,2022-06-01,3910000,경기도 평택시
41220-00159,소사벌 어린이공원,어린이공원,,경기도 평택시 비전동 879-2,36.994734,127.115778,2638.6,옆파도타기+온몸근육풀기+온몸노젓기+온몸허리돌리기+하늘걷기,그네+그네보호대+모래테이블+모래포장+조합놀이대+흔들놀이,,,맹암거(간선)+맹암거(지선)+배수관+벤치플륨관+자연석쌓기+집수정,1994-01-11,경기도 평택시청,031-8024-4247,2022-06-01,3910000,경기도 평택시
41220-00160,송화 어린이공원,어린이공원,,경기도 평택시 팽성읍 송화리 778-1,36.963975,127.059345,1558,마라톤운동기+옆파도타기+온몸근육풀기+온몸허리돌리기+윗몸일으키기+하늘걷기,모래포장+시소+조합놀이대,,,맹암거(간선)+맹암거(지선)+배수관+벤치플륨관+집수정,1999-03-19,경기도 평택시청,031-8024-4247,2022-06-01,3910000,경기도 평택시
41220-00161,숲속 어린이공원(소사벌택지 1호),어린이공원,,경기도 평택시 비전동 969공,37.007471,127.10402,4115,다리뻗치기+등허리지압기+배드민턴장+배드민턴지주대+옆파도타기+하늘걷기,개미터널+고무칩포장+그네+그네보호대+미끄럼틀+시소+흔들놀이,,,우수관로+원형수로관+집수정,2007-11-07,경기도 평택시청,031-8024-4247,2022-06-01,3910000,경기도 평택시
41220-00162,신대쌈지 어린이공원,어린이공원,,경기도 평택시 신대동 418-9,36.99526,127.066754,2129,어깨근육풀기+옆파도타기+온몸역기내리기+온몸허리돌리기+족구장+족구지주+하늘걷기,고무칩포장+조합놀이대+흔들놀이,,,맹암거(간선)+맹암거(지선)+빗물받이뚜겅+우수관+측구수로관+트렌치뚜껑,2016-02-29,경기도 평택시청,031-8024-4247,2022-06-01,3910000,경기도 평택시
41220-00163,신작 어린이공원,어린이공원,,경기도 평택시 합정동 908-4,36.98986,127.102063,2031,다리근육풀기+등허리지압기+옆파도타기+온몸근육풀기+온몸허리돌리기+하늘걷기,그네+그네보호대+모래포장+시소+조합놀이대+흔들놀이,음수전,,공원기둥+집수정,1993-12-03,경기도 평택시청,031-8024-4247,2022-06-01,3910000,경기도 평택시
41220-00164,신흥 어린이공원(신흥지구),어린이공원,,경기도 평택시 용이동 749-1번지,37.001736,127.148257,2359,마라톤운동+하늘걷기+허리돌리기,그네+놀이시설 경계+시소+조합놀이대+흔들놀이,,,수목보호홀덮개+연결관+우수관+원형맨홀+원형수로관+원형수로관집수정+집수정,2010-09-27,경기도 평택시청,031-8024-4247,2022-06-01,3910000,경기도 평택시
41220-00165,안정 어린이공원(안정지구 6호),어린이공원,,경기도 평택시 팽성읍 안정리 43-4,36.964653,127.045679,4858.3,다리뻗치기+옆파도타기+온몸근육풀기+온몸허리돌리기+윗몸일으키기+하늘걷기,고무칩포장+그네+그네보호대+모래포장+시소(2인용)+조합놀이대+흔들놀이,음수대,,스탠드+원심력수로관+원형플랜터A+집수정+집수정연결관A+트랜치,2010-12-09,경기도 평택시청,031-8024-4247,2022-06-01,3910000,경기도 평택시
41220-00166,암석 제3호 어린이공원(영신지구),어린이공원,,경기도 평택시 동삭동 575-1,37.020082,127.083718,2269,,,,,,2010-01-29,경기도 평택시청,031-8024-4247,2022-06-01,3910000,경기도 평택시
41220-00167,앞마당 어린이공원(용죽지구),어린이공원,,경기도 평택시 용이동 300-2번지,36.990964,127.121355,3613,옆파도운동+오금펴기운동+하늘걷기운동+허리돌리기운동,그네놀이대+놀이시설 경계+시소놀이대,자전거보관대,,배수관+집수정,2010-11-24,경기도 평택시청,031-8024-4247,2022-06-01,3910000,경기도 평택시
41220-00168,어린이공원(통복지구),어린이공원,,경기도 평택시 통복동 22-2,36.998618,127.083086,1567,,,,,,2016-08-12,경기도 평택시청,031-8024-4247,2022-06-01,3910000,경기도 평택시
41220-00169,어울림 어린이공원(현촌지구),어린이공원,,경기도 평택시 용이동 593-3,36.99960583,127.1315582,3951,마라톤운동기+옆파도타기+하늘걷기,고무칩포장+그네+그네보호대+시소+조합놀이대+흔들놀이,자전거거치대,,,2010-09-24,경기도 평택시청,031-8024-4247,2022-06-01,3910000,경기도 평택시
41220-00170,어인남 어린이공원,어린이공원,,경기도 평택시 비전동 752-13,36.994051,127.10067,985,마라톤운동기+옆파도타기+온몸근육풀기+온몸허리돌리기+이형판석포장+하늘걷기,그네+모래포장+조합놀이대+흔들놀이,,,공원조형탑+집수정,1990-04-12,경기도 평택시청,031-8024-4247,2022-06-01,3910000,경기도 평택시
41220-00171,어제 3호 어린이공원(모산영신지구),어린이공원,경기도 평택시 지제동삭1로 163 (동삭동 더샵지제역센트럴파크1BL아파트),경기도 평택시 동삭동 412-14,37.016004,127.0905419,1887,,,,,,2009-09-30,경기도 평택시청,031-8024-4247,2022-06-01,3910000,경기도 평택시
41220-00172,용이1호 어린이공원(용이지구),어린이공원,,경기도 평택시 용이동 485-1,37.00002296,127.14821,1805,마라톤운동기+온몸근육풀기+온몸역기내리기+온몸허리돌리기+윗몸일으키기+탄성고무칩포장,그네+그네보호대+조합놀이대+탄성고무칩포장+흔들놀이,,,집수정+흉관,2003-12-04,경기도 평택시청,031-8024-4247,2022-06-01,3910000,경기도 평택시
41220-00173,용이2호 어린이공원(용이지구),어린이공원,,경기도 평택시 용이동 447-1,36.998348,127.139361,1849,마라톤운동기+옆파도타기+온몸근육풀기+윗몸일으키기+탄성고무칩포장,그네+그네보호대+시소+조합놀이대+탄성고무칩포장+흔들놀이,,,집수정+흉관,2003-12-04,경기도 평택시청,031-8024-4247,2022-06-01,3910000,경기도 평택시
41220-00174,용이3호 어린이공원(용이지구),어린이공원,,경기도 평택시 용이동 459-1,36.996513,127.140007,1914,,고무매트포장+구름사다리+그네+그네보호대+사다리놀이기+시소+조합놀이대+흔들놀이,,,수목보호홀덮개,2003-12-04,경기도 평택시청,031-8024-4247,2022-06-01,3910000,경기도 평택시
41220-00175,용이4호 어린이공원(용이지구),어린이공원,,경기도 평택시 용이동 453-4,36.995507,127.136516,2589,농구대+농구장+옆파도타기+온몸허리돌리기+윗몸일으키기,고무칩포장+그네+그네보호대+조합놀이대+흔들놀이,,,집수정+흉관,2003-12-04,경기도 평택시청,031-8024-4247,2022-06-01,3910000,경기도 평택시
41220-00176,우주별 어린이공원(소사벌택지 8호),어린이공원,,경기도 평택시 비전동 1047공,37.002497,127.111008,1688,옆파도타기+온몸허리돌리기+하늘걷기,고무칩포장+엑스시소+조합놀이대+흔들놀이,,,우수관로+집수정,2007-11-07,경기도 평택시청,031-8024-4247,2022-06-01,3910000,경기도 평택시
41220-00177,원앙 어린이공원,어린이공원,,경기도 평택시 세교동 555-1,37.001829,127.0860165,1597.4,농구대+농구장+다리뻗치기+어깨근육풀기+옆파도타기+온몸허리돌리기+하늘걷기,그네+그네보호대+모래포장+시소+흔들놀이,화장실,,집수정,1992-03-13,경기도 평택시청,031-8024-4247,2022-06-01,3910000,경기도 평택시
44133-00089,망향의동산,묘지공원,,충청남도 천안시 서북구 성거읍 요방리 산6-12,36.8507044,127.1880666,214640,,,,,,2001-01-02,보건복지부,041-557-7001,2022-06-17,4490000,충청남도 천안시
44133-00090,한들공원,수변공원,,충청남도 천안시 서북구 백석동 1166,36.82629821,127.1199645,7577.3,,,,,,2008-03-10,충청남도 천안시청,041-521-2774,2022-06-17,4490000,충청남도 천안시
44133-00090,하늘소리공원,어린이공원,,충청남도 천안시 서북구 불당동 1752,36.81040558,127.1026269,3214.6,,조합놀이대,,,,2009-12-02,충청남도 천안시청,041-521-2774,2022-06-17,4490000,충청남도 천안시
44133-00091,수피아공원,근린공원,,"충청남도 천안시 서북구 불당동 1506,1800",36.82145798,127.1014062,39984.9,,,,,,2009-12-02,충청남도 천안시청,041-521-2776,2022-06-17,4490000,충청남도 천안시
44133-00092,아름드리공원,근린공원,,"충청남도 천안시 서북구 불당동 1512,1547,1612",36.8177613,127.1036039,63796.7,,,화장실,,,2009-12-02,충청남도 천안시청,041-521-2776,2022-06-17,4490000,충청남도 천안시
44133-00093,능수버들공원,근린공원,,"충청남도 천안시 서북구 불당동 1484,1490,1493,1499",36.8197019,127.1102883,51899.3,,,화장실,,,2009-12-02,충청남도 천안시청,041-521-2776,2022-06-17,4490000,충청남도 천안시
44133-00094,하늘맞이공원,근린공원,,충청남도 천안시 서북구 불당동 1851,36.80493403,127.1040358,18364.5,,,화장실,,,2009-12-02,충청남도 천안시청,041-521-2776,2022-06-17,4490000,충청남도 천안시
44133-00095,물총새공원,근린공원,,"충청남도 천안시 서북구 불당동 1641,1642,1643,1855",36.81080322,127.1077044,29461.1,,,,,,2009-12-02,충청남도 천안시청,041-521-2776,2022-06-17,4490000,충청남도 천안시
44133-00096,잠자리공원,어린이공원,,충청남도 천안시 서북구 부대동 1035,36.84829414,127.1491722,5343.8,,조합놀이대2+시소+그네,,,,2015-12-01,충청남도 천안시청,041-521-2774,2022-06-17,4490000,충청남도 천안시
44133-00097,무당벌레공원,어린이공원,,충청남도 천안시 서북구 부대동 1067,36.84289154,127.1488433,2154.1,,조합놀이대+그네,,,,2015-12-01,충청남도 천안시청,041-521-2774,2022-06-17,4490000,충청남도 천안시
44133-00098,숲향기공원,소공원,,충청남도 천안시 서북구 부대동 1051,36.84511463,127.1523456,4508,,,,,,2015-12-01,충청남도 천안시청,041-521-2774,2022-06-17,4490000,충청남도 천안시
44133-00099,두정4공원,어린이공원,,충청남도 천안시 서북구 성정동 1569,36.8278345,127.147025,4986.3,,조합놀이대,화장실,,,1993-02-23,충청남도 천안시청,041-521-2774,2022-06-17,4490000,충청남도 천안시
11590-00019,토끼,어린이공원,,서울특별시 동작구 사당동 1000-13,37.47817735,126.970241,821.7,,,,,,1977-04-20,서울특별시 동작구청,,2022-04-25,3190000,서울특별시 동작구
30230-00052,대양,어린이공원,,대전광역시 대덕구 송촌동488-1,36.36185001,127.4393079,1505,야외운동기구,조합놀이대,"평의자,등의자",,,1998-06-13,대전광역시 대덕구청,042-608-5134,2022-05-31,3680000,대전광역시 대덕구
30230-00053,4공단,어린이공원,,대전광역시 대덕구 신일동1690-4,36.43313342,127.4058737,5991,,,"평의자,정자",,,1998-06-13,대전광역시 대덕구청,042-608-5134,2022-05-31,3680000,대전광역시 대덕구
30230-00054,등마루,어린이공원,,대전광역시 대덕구 석봉동202-1,36.45170174,127.4253128,1933,야외운동기구,조합놀이대,정자,,,1982-02-19,대전광역시 대덕구청,042-608-5134,2022-05-31,3680000,대전광역시 대덕구
30230-00055,석봉,어린이공원,,대전광역시 대덕구 석봉동 415-51,36.44973861,127.4274438,1687,야외운동기구,조합놀이대,"등의자,평의자,화장실",,,2014-10-17,대전광역시 대덕구청,042-608-5134,2022-05-31,3680000,대전광역시 대덕구
30230-00056,대화쌈지,어린이공원,,대전광역시 대덕구 대화동 35-139,36.36413485,127.4152646,635,야외운동기구,조합놀이대,평의자,,,2009-06-26,대전광역시 대덕구청,042-608-5134,2022-05-31,3680000,대전광역시 대덕구
30230-00057,대화,어린이공원,,대전광역시 대덕구 대화동 35-936,36.36521639,127.4152257,1107,야외운동기구,조합놀이대,"등의자, 평의자, 화장실",,,2008-10-10,대전광역시 대덕구청,042-608-5134,2022-05-31,3680000,대전광역시 대덕구
30230-00058,효자2,어린이공원,,대전광역시 대덕구 읍내동204,36.380023,127.419037,1553,,,,,,2007-03-02,대전광역시 대덕구청,042-608-5134,2022-05-31,3680000,대전광역시 대덕구
30230-00059,대화동2구역,어린이공원,,대전광역시 대덕구 대화동243-1,36.36386476,127.412589,1658,,,,,,2009-06-26,대전광역시 대덕구청,042-608-5134,2022-05-31,3680000,대전광역시 대덕구
45800-00001,서림공원,근린공원,"전라북도 부안군 부안읍 동중리, 서외리, 행안면 역리 190전 일원",,35.7329193,126.731487,408986,,,,,,,전라북도 부안군청,063-580-4644,2022-05-26,4790000,전라북도 부안군
41135-00049,오야소공원,어린이공원,,경기도 성남시 분당구 야탑동 509,37.4079394,127.1268844,1517.8,야외운동기구,어린이놀이터,벤치,,,1990-06-22,경기도 성남시 분당구 녹지공원과,031-729-8092,2022-11-13,3780000,경기도 성남시
41135-00050,무잡모퉁이공원,어린이공원,,경기도 성남시 분당구 야탑동 529,37.40729372,127.1270171,2018.4,야외운동기구,어린이놀이터,벤치,,,1990-06-22,경기도 성남시 분당구 녹지공원과,031-729-8092,2022-11-13,3780000,경기도 성남시
41135-00051,장승백이공원,어린이공원,,경기도 성남시 분당구 야탑동 516,37.40952179,127.131019,1504.3,야외운동기구,어린이놀이터,벤치,,,1990-06-22,경기도 성남시 분당구 녹지공원과,031-729-8092,2022-11-13,3780000,경기도 성남시
41135-00052,무장들공원,어린이공원,,경기도 성남시 분당구 야탑동 524,37.4077388,127.1310191,1506.9,야외운동기구,어린이놀이터,벤치,,,1990-06-22,경기도 성남시 분당구 녹지공원과,031-729-8092,2022-11-13,3780000,경기도 성남시
41135-00053,탑골공원,어린이공원,,경기도 성남시 분당구 야탑동 521,37.4083528,127.1363293,4314.6,야외운동기구,어린이놀이터,벤치,,,1990-06-22,경기도 성남시 분당구 녹지공원과,031-729-8092,2022-11-13,3780000,경기도 성남시
50130-00047,바람모루공원,근린공원,,제주특별자치도 서귀포시 서호동 1601,33.25406553,126.5173415,31066,운동기구 4종,,파고라 2식,장애아전문 어린이집,서귀포시노인복지회관,2007-09-05,제주특별자치도 서귀포시청,064-760-3192,2022-06-30,6520000,제주특별자치도 서귀포시
50130-00048,숨골공원,근린공원,,제주특별자치도 서귀포시 서호동 1609,33.24816288,126.5159145,30817,,,파고라 2식,,,2007-09-05,제주특별자치도 서귀포시청,064-760-3192,2022-06-30,6520000,제주특별자치도 서귀포시
50130-00049,삼다체육공원,체육공원,,제주특별자치도 서귀포시 서호동 1602,33.25254614,126.5161895,42015,운동기구 8종,,파고라 2식,,,2007-09-05,제주특별자치도 서귀포시청,064-760-3192,2022-06-30,6520000,제주특별자치도 서귀포시
11305-00013,송월,어린이공원,,서울특별시 강북구 송중동 92-7,37.6163653,127.0321067,807,,조합놀이대+시소+그네,,,,2002-05-27,서울특별시 강북구청,02-901-6952,2022-08-21,3080000,서울특별시 강북구
11305-00014,소망,소공원,,서울특별시 강북구 삼양동 791-1467,37.6258055,127.0154221,320,,조합놀이대,,,,2001-05-15,서울특별시 강북구청,02-901-6952,2022-08-21,3080000,서울특별시 강북구
11305-00015,미래,소공원,,서울특별시 강북구 삼양동 791-1712,37.6246182,127.0145881,564,,조합놀이대,,,,2001-05-25,서울특별시 강북구청,02-901-6952,2022-08-21,3080000,서울특별시 강북구
11305-00016,늘푸른,소공원,,서울특별시 강북구 삼양동 797-9,37.6254089,127.0197435,646,,조합놀이대+흔들놀이,,,,2003-06-25,서울특별시 강북구청,02-901-6952,2022-08-21,3080000,서울특별시 강북구
11305-00017,폭포,소공원,,서울특별시 강북구 삼각산동 813-6,37.612576,127.021656,1238,,,,,,2005-11-10,서울특별시 강북구청,02-901-6952,2022-08-21,3080000,서울특별시 강북구
11305-00018,꼭지,소공원,,서울특별시 강북구 삼각산동 811-7,37.6188024,127.017338,746,,,,,,2006-10-09,서울특별시 강북구청,02-901-6952,2022-08-21,3080000,서울특별시 강북구
11305-00019,테두리,어린이공원,,서울특별시 강북구 삼각산동 811-8,37.6186251,127.0176915,1913,,조합놀이대+그네+시소,,,,2006-10-09,서울특별시 강북구청,02-901-6952,2022-08-21,3080000,서울특별시 강북구
11305-00020,고갯마루,어린이공원,,서울특별시 강북구 삼각산동 811-13,37.6164203,127.0169389,2185.8,,조합놀이대+시소,,,,2006-10-09,서울특별시 강북구청,02-901-6952,2022-08-21,3080000,서울특별시 강북구
11305-00021,미아,어린이공원,,서울특별시 강북구 송중동 8-73,37.6152567,127.0375807,992,,조합놀이대+그네,,,,,서울특별시 강북구청,02-901-6952,2022-08-21,3080000,서울특별시 강북구
11305-00022,미,소공원,,서울특별시 강북구 송중동 71-1,37.6137937,127.0305656,424.4,,,,,,,서울특별시 강북구청,02-901-6952,2022-08-21,3080000,서울특별시 강북구
11305-00023,번남,어린이공원,,서울특별시 강북구 번1동 447-1,37.6357586,127.0247969,1014.9,,조합놀이대+시소+흔들놀이,화장실,,,1965-11-08,서울특별시 강북구청,02-901-6952,2022-08-21,3080000,서울특별시 강북구
11305-00024,논골,어린이공원,,서울특별시 강북구 번1동 417-27,37.6386856,127.0279086,991.7,,조합놀이대+시소,,,,1965-11-08,서울특별시 강북구청,02-901-6952,2022-08-21,3080000,서울특별시 강북구
11305-00025,샛강,어린이공원,,서울특별시 강북구 번1동 472-44,37.6395202,127.0329966,858.2,,조합놀이대+흔들놀이,화장실,,,1971-08-06,서울특별시 강북구청,02-901-6952,2022-08-21,3080000,서울특별시 강북구
11305-00026,오동근린공원,근린공원,,서울특별시 강북구 번동 산20-1,37.6292331,127.0330524,1025284.1,실내배드민턴장+구민운동장+다목적체육관+골프연습장,조합놀이대+그네+흔들놀이,화장실+약수터+주차장,도서관,유아숲체험장,1982-09-20,서울특별시 강북구청,02-901-6929,2022-08-21,3080000,서울특별시 강북구
11305-00027,오얏골,어린이공원,,서울특별시 강북구 번2동 228,37.6341439,127.0344484,5070.7,,조합놀이대+시소+그네+흔들놀이,화장실,,,1988-12-30,서울특별시 강북구청,02-901-6952,2022-08-21,3080000,서울특별시 강북구
11305-00028,벌리,어린이공원,,서울특별시 강북구 번3동 240,37.6275219,127.0445034,4083.5,,조합놀이대+그네+시소,화장실,,,1988-12-30,서울특별시 강북구청,02-901-6952,2022-08-21,3080000,서울특별시 강북구
11305-00029,벌말,어린이공원,,서울특별시 강북구 번2동 235,37.6296813,127.0396722,4641.3,,조합놀이대+그네+시소,화장실,,,1988-12-30,서울특별시 강북구청,02-901-6952,2022-08-21,3080000,서울특별시 강북구
11305-00030,오현,어린이공원,,서울특별시 강북구 번3동 244,37.6245294,127.0466034,3661,,조합놀이대+그네+시소,화장실,,,1988-12-30,서울특별시 강북구청,02-901-6952,2022-08-21,3080000,서울특별시 강북구
11305-00031,색동,어린이공원,,서울특별시 강북구 수유1동 49-7,37.6331377,127.0205711,2341.2,,조합놀이대+그네+흔들놀이,,,,1964-10-16,서울특별시 강북구청,02-901-6952,2022-08-21,3080000,서울특별시 강북구
11305-00032,흰구름,어린이공원,,서울특별시 강북구 수유2동 252-19,37.6455986,127.0205211,1064,,조합놀이대+그네+시소,화장실,,,1965-07-08,서울특별시 강북구청,02-901-6952,2022-08-21,3080000,서울특별시 강북구
11305-00033,희망,어린이공원,,서울특별시 강북구 수유3동 194-41,37.6407466,127.0243466,976.9,,조합놀이대+그네,,,,1965-11-08,서울특별시 강북구청,02-901-6952,2022-08-21,3080000,서울특별시 강북구
11305-00034,은모루,어린이공원,,서울특별시 강북구 수유3동 172-209,37.642469,127.0267036,918,,조합놀이대+그네+시소,화장실,,,1965-11-08,서울특별시 강북구청,02-901-6952,2022-08-21,3080000,서울특별시 강북구
11305-00035,소귀,어린이공원,,서울특별시 강북구 수유3동 25-1,37.6385644,127.0186984,961,,조합놀이대+그네+시소,,,,1965-11-08,서울특별시 강북구청,02-901-6952,2022-08-21,3080000,서울특별시 강북구
44131-00061,청수1공원,어린이공원,,충청남도 천안시 동남구 청수동 330,36.78844866,127.1534604,1502,,조합놀이대+미끄럼틀,,,,2005-11-30,충청남도 천안시청,041-521-2772,2022-06-17,4490000,충청남도 천안시
44131-00062,2호공원,근린공원,,충청남도 천안시 동남구 풍세면 보성리 731,36.72468977,127.1028308,10000,배드민턴장,조합놀이대,,,,2009-01-20,충청남도 천안시청,041-521-2772,2022-06-17,4490000,충청남도 천안시
44131-00063,솔모랭이공원(6호),소공원,,충청남도 천안시 동남구 풍세면 용정리 989,36.73332384,127.1005473,1773.9,,,,,,2012-01-12,충청남도 천안시청,041-521-2772,2022-06-17,4490000,충청남도 천안시
44131-00064,태조산공원,근린공원,,충청남도 천안시 동남구 유량동 산1-1,36.82207666,127.1889559,536723,,,화장실,,,2009-01-20,충청남도 천안시시설관리공단,041-521-2772,2022-06-17,4490000,충청남도 천안시
44131-00065,안서3공원,어린이공원,,충청남도 천안시 동남구 안서동 212-2,36.82840832,127.1861935,1558,,조합놀이대,,,,2015-04-01,충청남도 천안시청,041-521-2772,2022-06-17,4490000,충청남도 천안시
44131-00070,신방문화공원,근린공원,,충청남도 천안시 동남구 신방동 1521,36.77441534,127.1307313,12252.8,,,,,,2005-08-22,충청남도 천안시청,041-521-2772,2022-06-17,4490000,충청남도 천안시
